$GPRMC,214154.00$$$$$$$$$$$$$$$$$$$$$$$$$$$$$$$$$$$$$$$$$$$$$$$$$$$$$$$$$$$$$$$$$$$$$$$$$$$$$$$$$$$$$$$$$$$$$$$$$$$$$$$$$$$$$$$$$$$$$$$$$$$$$$$$$$$$$$$$$$$$$$$$$$$$$$$$$$$$$$$$$$$$$$$$$$$$$$$$$$$$$$$$$$$$$$$$$$$$$$$$$$$$$$$$$$$$$$$$$$$$$$$$$$$$$$$$$$$$$$$$$$$$$$$$$$$$$$$$$$$$$$$$$$$$$$$$$$$$$$$$$$$$$$$$$$$$$$$$$$$$$$$$$$$$$$$$$$$$$$$$$$$$$$$$$$$$$$$$$$$$$$$$$$$$$$$$$$$$$$$$$$$$$$$$$$$$$$$$$$$$$$$$$$$$$$$$$$$$$$$$$$$$$$$$$$$$$$$$$$$$$$$$$$$$$$$$$$$$$$$$$$$$$$$$$$$$$$$$$$$$$$$$$$$$$$$$$$$$$$$$$$$GPRMC,214206.00,A,3002.80686,N,03121.07204,E,0.018,,110621,,,A*7E
$GPVTG,,T,,M,0.018,N,0.034,K,A*2D
$GPGGA,214206.00,3002.80686,N,03121.07204,E,1,08,0.95,138.8,M,15.3,M,,*5F
$GPGSA,A,3,07,09,04,06,03,16,22,02,,,,,1.67,0.95,1.37*01
$GPGSV,3,1,09,02,17,301,33,03,29,137,33,04,38,061,38,06,34,266,26*7D
$GPGSV,3,2,09,07,76,260,38,09,58,012,44,16,18,052,22,22,05,141,31*75
$GPGSV,3,3,09,30,36,233,*44
$GPGLL,3002.80686,N,03121.07204,E,214206.00,A,A*EEEEEEEEEEEEEEEEEEEEEEEEEEEEEEEEEEEEEEEEEEEEEEEEEEEEEEEEEEEEEEEEEEEEEEEEEEEEEEEEEEEEEEEEEEEEEEEEEEEEEEEEEEEEEEEEEEEEEEEEEEEEEEEEEEEEEEEEEEEEEEEEEEEEEEEEEEEEEEEEEEEEEEEEEEEEEEEEEEEEEEEEEEEEEEEEEEEEEEEEEEEEEEEEEEEEEEEEEEEEEEEEEEEEEEEEEEEEEEEEEEEEEEEEEEEEEEEEEEEEEEEEEEEEEEEEEEEEEEEEEEEEEEEEEEEEEEEEEEEEEEEEEEEEEEEEEEEEEEEEEEEEEEEEEEEEEEEEEEEEEEEEEEEEEEEEEEEEEEEEEEEEEEEEEEEEEEEEEEEEEEEEEEEEEEEEEEEEEEEEEEEEEEEEEEEEEEEEEEEEEEEEEEE$GPRMC,214208.00,A,3002.80691,N,03121.07233,E,0.728,,110621,,,A*76
$GPVTG,,T,,M,0.728,N,1.349,K,A*21
$GPGGA,214208.00,3002.80691,N,03121.07233,E,1,08,0.95,138.9,M,15.3,M,,*52
$GPGSA,A,3,07,09,04,06,03,16,22,02,,,,,1.67,0.95,1.37*01
$GPGSV,3,1,09,02,17,301,27,03,29,137,28,04,38,061,38,06,34,266,26*72
$GPGSV,3,2,09,07,76,260,38,09,58,012,41,16,18,052,19,22,05,141,32*7B
$GPGSV,3,3,09,30,36,233,18*4D
$GPGLL,3002.80691,N,03121.07233,E,214208.00,A,A*EEEEEEEEEEEEEEEEEEEEEEEEEEEEEEEEEEEEEEEEEEEEEEEEEEEEEEEEEEEEEEEEEEEEEEEEEEEEEEEEEEEEEEEEEEEEEEEEEEEEEEEEEEEEEEEEEEEEEEEEEEEEEEEEEEEEEEEEEEEEEEEEEEEEEEEEEEEEEEEEEEEEEEEEEEEEEEEEEEEEEEEEEEEEEEEEEEEEEEEEEEEEEEEEEEEEEEEEEEEEEEEEEEEEEEEEEEEEEEEEEEEEEEEEEEEEEEEEEEEEEEEEEEEEEEEEEEEEEEEEEEEEEEEEEEEEEEEEEEEEEEEEEEEEEEEEEEEEEEEEEEEEEEEEEEEEEEEEEEEEEEEEEEEEEEEEEEEEEEEEEEEEEEEEEEEEEEEEEEEEEEEEEEEEEEEEEEEEEEEEEEEEEEEEEEEEEEEEEEEEEE$GPRMC,214210.00,A,3002.80686,N,03121.07275,E,0.963,66.60,110621,,,A*52
$GPVTG,66.60,T,,M,0.963,N,1.784,K,A*0D
$GPGGA,214210.00,3002.80686,N,03121.07275,E,1,09,0.88,138.8,M,15.3,M,,*53
$GPGSA,A,3,07,09,04,30,06,03,16,22,02,,,,1.62,0.88,1.37*0B
$GPGSV,3,1,09,02,17,301,30,03,29,137,30,04,38,061,38,06,34,266,27*7C
$GPGSV,3,2,09,07,76,260,37,09,58,012,42,16,18,052,17,22,05,141,31*7A
$GPGSV,3,3,09,30,36,233,18*4D
$GPGLL,3002.80686,N,03121.07275,E,214210.00,A,A*EEEEEEEEEEEEEEEEEEEEEEEEEEEEEEEEEEEEEEEEEEEEEEEEEEEEEEEEEEEEEEEEEEEEEEEEEEEEEEEEEEEEEEEEEEEEEEEEEEEEEEEEEEEEEEEEEEEEEEEEEEEEEEEEEEEEEEEEEEEEEEEEEEEEEEEEEEEEEEEEEEEEEEEEEEEEEEEEEEEEEEEEEEEEEEEEEEEEEEEEEEEEEEEEEEEEEEEEEEEEEEEEEEEEEEEEEEEEEEEEEEEEEEEEEEEEEEEEEEEEEEEEEEEEEEEEEEEEEEEEEEEEEEEEEEEEEEEEEEEEEEEEEEEEEEEEEEEEEEEEEEEEEEEEEEEEEEEEEEEEEEEEEEEEEEEEEEEEEEEEEEEEEEEEEEEEEEEEEEEEEEEEEEEEEEEEEEEEEEEEEEEEEEE$GPRMC,214212.00,A,3002.80680,N,03121.07353,E,1.280,92.06,110621,,,A*5F
$GPVTG,92.06,T,,M,1.280,N,2.371,K,A*0C
$GPGGA,214212.00,3002.80680,N,03121.07353,E,1,07,1.17,138.7,M,15.3,M,,*54
$GPGSA,A,3,07,09,04,06,03,22,02,,,,,,1.92,1.17,1.52*04
$GPGSV,3,1,09,02,17,301,27,03,29,137,30,04,38,061,35,06,34,266,26*76
$GPGSV,3,2,09,07,76,260,38,09,58,012,38,16,18,052,,22,05,141,22*7C
$GPGSV,3,3,09,30,36,233,*44
$GPGLL,3002.80680,N,03121.07353,E,214212.00,A,A*EEEEEEEEEEEEEEEEEEEEEEEEEEEEEEEEEEEEEEEEEEEEEEEEEEEEEEEEEEEEEEEEEEEEEEEEEEEEEEEEEEEEEEEEEEEEEEEEEEEEEEEEEEEEEEEEEEEEEEEEEEEEEEEEEEEEEEEEEEEEEEEEEEEEEEEEEEEEEEEEEEEEEEEEEEEEEEEEEEEEEEEEEEEEEEEEEEEEEEEEEEEEEEEEEEEEEEEEEEEEEEEEEEEEEEEEEEEEEEEEEEEEEEEEEEEEEEEEEEEEEEEEEEEEEEEEEEEEEEEEEEEEEEEEEEEEEEEEEEEEEEEEEEEEEEEEEEEEEEEEEEEEEEEEEEEEEEEEEEEEEEEEEEEEEEEEEEEEEEEEEEEEEEEEEEEEEEEEEEEEEEEEEEEEEEEEEEEEEEEEEEEEEEEEEEEEEEEEEEEEEEE$GPRMC,214214.00,A,3002.80666,N,03121.07423,E,1.067,,110621,,,A*79
$GPVTG,,T,,M,1.067,N,1.976,K,A*2A
$GPGGA,214214.00,3002.80666,N,03121.07423,E,1,07,1.17,138.2,M,15.3,M,,*5F
$GPGSA,A,3,07,09,04,06,03,22,02,,,,,,1.92,1.17,1.52*04
$GPGSV,3,1,09,02,17,301,25,03,29,137,30,04,38,061,38,06,34,266,29*76
$GPGSV,3,2,09,07,76,260,34,09,58,012,38,16,18,052,15,22,05,141,22*74
$GPGSV,3,3,09,30,36,233,23*45
$GPGLL,3002.80666,N,03121.07423,E,214214.00,A,A*EEEEEEEEEEEEEEEEEEEEEEEEEEEEEEEEEEEEEEEEEEEEEEEEEEEEEEEEEEEEEEEEEEEEEEEEEEEEEEEEEEEEEEEEEEEEEEEEEEEEEEEEEEEEEEEEEEEEEEEEEEEEEEEEEEEEEEEEEEEEEEEEEEEEEEEEEEEEEEEEEEEEEEEEEEEEEEEEEEEEEEEEEEEEEEEEEEEEEEEEEEEEEEEEEEEEEEEEEEEEEEEEEEEEEEEEEEEEEEEEEEEEEEEEEEEEEEEEEEEEEEEEEEEEEEEEEEEEEEEEEEEEEEEEEEEEEEEEEEEEEEEEEEEEEEEEEEEEEEEEEEEEEEEEEEEEEEEEEEEEEEEEEEEEEEEEEEEEEEEEEEEEEEEEEEEEEEEEEEEEEEEEEEEEEEEEEEEEEEEEEEEEEEEEEEEEEEEEEEEEEEEEE$GPRMC,214216.00,A,3002.80621,N,03121.07503,E,1.845,123.04,110621,,,A*69
$GPVTG,123.04,T,,M,1.845,N,3.417,K,A*30
$GPGGA,214216.00,3002.80621,N,03121.07503,E,1,08,1.17,138.2,M,15.3,M,,*52
$GPGSA,A,3,07,09,04,30,06,03,22,02,,,,,1.92,1.17,1.52*07
$GPGSV,3,1,09,02,17,301,26,03,29,137,32,04,38,061,38,06,34,266,30*7F
$GPGSV,3,2,09,07,76,260,33,09,58,012,38,16,18,052,09,22,05,141,22*7E
$GPGSV,3,3,09,30,36,233,22*44
$GPGLL,3002.80621,N,03121.07503,E,214216.00,A,A*EEEEEEEEEEEEEEEEEEEEEEEEEEEEEEEEEEEEEEEEEEEEEEEEEEEEEEEEEEEEEEEEEEEEEEEEEEEEEEEEEEEEEEEEEEEEEEEEEEEEEEEEEEEEEEEEEEEEEEEEEEEEEEEEEEEEEEEEEEEEEEEEEEEEEEEEEEEEEEEEEEEEEEEEEEEEEEEEEEEEEEEEEEEEEEEEEEEEEEEEEEEEEEEEEEEEEEEEEEEEEEEEEEEEEEEEEEEEEEEEEEEEEEEEEEEEEEEEEEEEEEEEEEEEEEEEEEEEEEEEEEEEEEEEEEEEEEEEEEEEEEEEEEEEEEEEEEEEEEEEEEEEEEEEEEEEEEEEEEEEEEEEEEEEEEEEEEEEEEEEEEEEEEEEEEEEEEEEEEEEEEEEEEEEEEEEEEEEEEEEEEEEEEEEEEE$GPRMC,214218.00,A,3002.80562,N,03121.07569,E,1.478,132.68,110621,,,A*67
$GPVTG,132.68,T,,M,1.478,N,2.737,K,A*38
$GPGGA,214218.00,3002.80562,N,03121.07569,E,1,08,1.17,138.0,M,15.3,M,,*56
$GPGSA,A,3,07,09,04,30,06,03,22,02,,,,,1.92,1.17,1.52*07
$GPGSV,3,1,09,02,17,301,26,03,29,137,28,04,38,061,36,06,34,266,31*7B
$GPGSV,3,2,09,07,76,260,29,09,58,012,40,16,18,052,08,22,05,141,21*78
$GPGSV,3,3,09,30,36,233,21*47
$GPGLL,3002.80562,N,03121.07569,E,214218.00,A,A*EEEEEEEEEEEEEEEEEEEEEEEEEEEEEEEEEEEEEEEEEEEEEEEEEEEEEEEEEEEEEEEEEEEEEEEEEEEEEEEEEEEEEEEEEEEEEEEEEEEEEEEEEEEEEEEEEEEEEEEEEEEEEEEEEEEEEEEEEEEEEEEEEEEEEEEEEEEEEEEEEEEEEEEEEEEEEEEEEEEEEEEEEEEEEEEEEEEEEEEEEEEEEEEEEEEEEEEEEEEEEEEEEEEEEEEEEEEEEEEEEEEEEEEEEEEEEEEEEEEEEEEEEEEEEEEEEEEEEEEEEEEEEEEEEEEEEEEEEEEEEEEEEEEEEEEEEEEEEEEEEEEEEEEEEEEEEEEEEEEEEEEEEEEEEEEEEEEEEEEEEEEEEEEEEEEEEEEEEEEEEEEEEEEEEEEEEEEEEEEEEEEEEEEEEEEEEEEE$GPRMC,214220.00,A,3002.80468,N,03121.07627,E,1.457,147.98,110621,,,A*6E
$GPVTG,147.98,T,,M,1.457,N,2.698,K,A*3C
$GPGGA,214220.00,3002.80468,N,03121.07627,E,1,09,0.88,138.0,M,15.3,M,,*59
$GPGSA,A,3,07,09,04,30,06,03,16,22,02,,,,1.62,0.88,1.37*0B
$GPGSV,3,1,09,02,17,301,27,03,29,137,28,04,38,061,37,06,34,266,34*7E
$GPGSV,3,2,09,07,76,260,37,09,58,012,37,16,18,052,10,22,05,141,27*78
$GPGSV,3,3,09,30,36,233,30*47
$GPGLL,3002.80468,N,03121.07627,E,214220.00,A,A*EEEEEEEEEEEEEEEEEEEEEEEEEEEEEEEEEEEEEEEEEEEEEEEEEEEEEEEEEEEEEEEEEEEEEEEEEEEEEEEEEEEEEEEEEEEEEEEEEEEEEEEEEEEEEEEEEEEEEEEEEEEEEEEEEEEEEEEEEEEEEEEEEEEEEEEEEEEEEEEEEEEEEEEEEEEEEEEEEEEEEEEEEEEEEEEEEEEEEEEEEEEEEEEEEEEEEEEEEEEEEEEEEEEEEEEEEEEEEEEEEEEEEEEEEEEEEEEEEEEEEEEEEEEEEEEEEEEEEEEEEEEEEEEEEEEEEEEEEEEEEEEEEEEEEEEEEEEEEEEEEEEEEEEEEEEEEEEEEEEEEEEEEEEEEEEEEEEEEEEEEEEEEEEEEEEEEEEEEEEEEEEEEEEEEEEEEEEEEEEEEEEEEEEE$GPRMC,214222.00,A,3002.80379,N,03121.07672,E,1.677,158.23,110621,,,A*65
$GPVTG,158.23,T,,M,1.677,N,3.105,K,A*30
$GPGGA,214222.00,3002.80379,N,03121.07672,E,1,09,1.02,137.9,M,15.3,M,,*59
$GPGSA,A,3,07,09,04,30,06,03,16,22,02,,,,1.80,1.02,1.49*0D
$GPGSV,3,1,09,02,17,301,25,03,29,137,33,04,38,061,39,06,34,266,35*79
$GPGSV,3,2,09,07,76,260,38,09,58,012,38,16,18,052,10,22,05,141,31*7F
$GPGSV,3,3,09,30,36,233,28*4E
$GPGLL,3002.80379,N,03121.07672,E,214222.00,A,A*EEEEEEEEEEEEEEEEEEEEEEEEEEEEEEEEEEEEEEEEEEEEEEEEEEEEEEEEEEEEEEEEEEEEEEEEEEEEEEEEEEEEEEEEEEEEEEEEEEEEEEEEEEEEEEEEEEEEEEEEEEEEEEEEEEEEEEEEEEEEEEEEEEEEEEEEEEEEEEEEEEEEEEEEEEEEEEEEEEEEEEEEEEEEEEEEEEEEEEEEEEEEEEEEEEEEEEEEEEEEEEEEEEEEEEEEEEEEEEEEEEEEEEEEEEEEEEEEEEEEEEEEEEEEEEEEEEEEEEEEEEEEEEEEEEEEEEEEEEEEEEEEEEEEEEEEEEEEEEEEEEEEEEEEEEEEEEEEEEEEEEEEEEEEEEEEEEEEEEEEEEEEEEEEEEEEEEEEEEEEEEEEEEEEEEEEEEEEEEEEEEEEEEEEEEE$GPRMC,214224.00,A,3002.80299,N,03121.07715,E,1.488,158.16,110621,,,A*68
$GPVTG,158.16,T,,M,1.488,N,2.756,K,A*35
$GPGGA,214224.00,3002.80299,N,03121.07715,E,1,09,1.02,137.8,M,15.3,M,,*51
$GPGSA,A,3,07,09,04,30,06,03,16,22,02,,,,1.80,1.02,1.49*0D
$GPGSV,3,1,09,02,17,301,24,03,29,137,33,04,38,061,38,06,34,266,19*77
$GPGSV,3,2,09,07,76,260,37,09,58,012,36,16,18,052,10,22,05,141,27*79
$GPGSV,3,3,09,30,36,233,28*4E
$GPGLL,3002.80299,N,03121.07715,E,214224.00,A,A*EEEEEEEEEEEEEEEEEEEEEEEEEEEEEEEEEEEEEEEEEEEEEEEEEEEEEEEEEEEEEEEEEEEEEEEEEEEEEEEEEEEEEEEEEEEEEEEEEEEEEEEEEEEEEEEEEEEEEEEEEEEEEEEEEEEEEEEEEEEEEEEEEEEEEEEEEEEEEEEEEEEEEEEEEEEEEEEEEEEEEEEEEEEEEEEEEEEEEEEEEEEEEEEEEEEEEEEEEEEEEEEEEEEEEEEEEEEEEEEEEEEEEEEEEEEEEEEEEEEEEEEEEEEEEEEEEEEEEEEEEEEEEEEEEEEEEEEEEEEEEEEEEEEEEEEEEEEEEEEEEEEEEEEEEEEEEEEEEEEEEEEEEEEEEEEEEEEEEEEEEEEEEEEEEEEEEEEEEEEEEEEEEEEEEEEEEEE$GPRMC,214226.00,A,3002.80197,N,03121.07744,E,1.662,166.75,110621,,,A*6D
$GPVTG,166.75,T,,M,1.662,N,3.078,K,A*31
$GPGGA,214226.00,3002.80197,N,03121.07744,E,1,08,1.02,138.2,M,15.3,M,,*5E
$GPGSA,A,3,07,09,04,30,06,03,22,02,,,,,1.80,1.02,1.49*0A
$GPGSV,3,1,09,02,17,301,25,03,28,137,33,04,38,061,37,06,34,266,21*73
$GPGSV,3,2,09,07,76,260,38,09,58,012,36,16,18,052,,22,05,141,30*71
$GPGSV,3,3,09,30,36,233,26*40
$GPGLL,3002.80197,N,03121.07744,E,214226.00,A,A*EEEEEEEEEEEEEEEEEEEEEEEEEEEEEEEEEEEEEEEEEEEEEEEEEEEEEEEEEEEEEEEEEEEEEEEEEEEEEEEEEEEEEEEEEEEEEEEEEEEEEEEEEEEEEEEEEEEEEEEEEEEEEEEEEEEEEEEEEEEEEEEEEEEEEEEEEEEEEEEEEEEEEEEEEEEEEEEEEEEEEEEEEEEEEEEEEEEEEEEEEEEEEEEEEEEEEEEEEEEEEEEEEEEEEEEEEEEEEEEEEEEEEEEEEEEEEEEEEEEEEEEEEEEEEEEEEEEEEEEEEEEEEEEEEEEEEEEEEEEEEEEEEEEEEEEEEEEEEEEEEEEEEEEEEEEEEEEEEEEEEEEEEEEEEEEEEEEEEEEEEEEEEEEEEEEEEEEEEEEEEEEEEEEEEEEEEEEEEEE$GPRMC,214228.00,A,3002.80099,N,03121.07776,E,1.716,169.93,110621,,,A*68
$GPVTG,169.93,T,,M,1.716,N,3.178,K,A*35
$GPGGA,214228.00,3002.80099,N,03121.07776,E,1,07,1.14,138.5,M,15.3,M,,*51
$GPGSA,A,3,07,09,04,30,06,03,02,,,,,,2.19,1.14,1.86*0D
$GPGSV,3,1,09,02,17,301,25,03,28,137,33,04,37,061,37,06,34,266,23*7E
$GPGSV,3,2,09,07,76,260,39,09,58,012,39,16,18,052,,22,05,141,28*76
$GPGSV,3,3,09,30,36,233,30*47
$GPGLL,3002.80099,N,03121.07776,E,214228.00,A,A*EEEEEEEEEEEEEEEEEEEEEEEEEEEEEEEEEEEEEEEEEEEEEEEEEEEEEEEEEEEEEEEEEEEEEEEEEEEEEEEEEEEEEEEEEEEEEEEEEEEEEEEEEEEEEEEEEEEEEEEEEEEEEEEEEEEEEEEEEEEEEEEEEEEEEEEEEEEEEEEEEEEEEEEEEEEEEEEEEEEEEEEEEEEEEEEEEEEEEEEEEEEEEEEEEEEEEEEEEEEEEEEEEEEEEEEEEEEEEEEEEEEEEEEEEEEEEEEEEEEEEEEEEEEEEEEEEEEEEEEEEEEEEEEEEEEEEEEEEEEEEEEEEEEEEEEEEEEEEEEEEEEEEEEEEEEEEEEEEEEEEEEEEEEEEEEEEEEEEEEEEEEEEEEEEEEEEEEEEEEEEEEEEEEEEEEEEEEEEEEEEEEEEEEE$GPRMC,214230.00,A,3002.80004,N,03121.07816,E,1.899,169.09,110621,,,A*67
$GPVTG,169.09,T,,M,1.899,N,3.517,K,A*33
$GPGGA,214230.00,3002.80004,N,03121.07816,E,1,07,1.09,138.9,M,15.3,M,,*55
$GPGSA,A,3,07,09,04,30,06,03,02,,,,,,2.16,1.09,1.86*0E
$GPGSV,3,1,09,02,17,301,25,03,28,137,32,04,37,061,34,06,34,265,22*7E
$GPGSV,3,2,09,07,76,262,40,09,58,012,37,16,18,052,,22,05,141,29*75
$GPGSV,3,3,09,30,36,233,33*44
$GPGLL,3002.80004,N,03121.07816,E,214230.00,A,A*EEEEEEEEEEEEEEEEEEEEEEEEEEEEEEEEEEEEEEEEEEEEEEEEEEEEEEEEEEEEEEEEEEEEEEEEEEEEEEEEEEEEEEEEEEEEEEEEEEEEEEEEEEEEEEEEEEEEEEEEEEEEEEEEEEEEEEEEEEEEEEEEEEEEEEEEEEEEEEEEEEEEEEEEEEEEEEEEEEEEEEEEEEEEEEEEEEEEEEEEEEEEEEEEEEEEEEEEEEEEEEEEEEEEEEEEEEEEEEEEEEEEEEEEEEEEEEEEEEEEEEEEEEEEEEEEEEEEEEEEEEEEEEEEEEEEEEEEEEEEEEEEEEEEEEEEEEEEEEEEEEEEEEEEEEEEEEEEEEEEEEEEEEEEEEEEEEEEEEEEEEEEEEEEEEEEEEEEEEEEEEEEEEEEEEEEEEEEEEEEEEE$GPRMC,214232.00,A,3002.79908,N,03121.07844,E,1.774,170.47,110621,,,A*6F
$GPVTG,170.47,T,,M,1.774,N,3.285,K,A*31
$GPGGA,214232.00,3002.79908,N,03121.07844,E,1,07,1.14,139.3,M,15.3,M,,*54
$GPGSA,A,3,07,09,04,30,06,03,02,,,,,,2.19,1.14,1.86*0D
$GPGSV,3,1,10,02,17,301,30,03,28,137,33,04,37,061,36,06,34,265,26*75
$GPGSV,3,2,10,07,76,262,39,09,58,012,35,16,18,052,,22,05,141,29*71
$GPGSV,3,3,10,30,36,233,25,39,54,193,35*7D
$GPGLL,3002.79908,N,03121.07844,E,214232.00,A,A*EEEEEEEEEEEEEEEEEEEEEEEEEEEEEEEEEEEEEEEEEEEEEEEEEEEEEEEEEEEEEEEEEEEEEEEEEEEEEEEEEEEEEEEEEEEEEEEEEEEEEEEEEEEEEEEEEEEEEEEEEEEEEEEEEEEEEEEEEEEEEEEEEEEEEEEEEEEEEEEEEEEEEEEEEEEEEEEEEEEEEEEEEEEEEEEEEEEEEEEEEEEEEEEEEEEEEEEEEEEEEEEEEEEEEEEEEEEEEEEEEEEEEEEEEEEEEEEEEEEEEEEEEEEEEEEEEEEEEEEEEEEEEEEEEEEEEEEEEEEEEEEEEEEEEEEEEEEEEEEEEEEEEEEEEEEEEEEEEEEEEEEEEEEEEEEEEEEEEEEEEEEEEEEEEEEEEEEEEEEEEEEEEEEEEEEEE$GPRMC,214234.00,A,3002.79820,N,03121.07874,E,1.785,173.46,110621,,,A*6D
$GPVTG,173.46,T,,M,1.785,N,3.305,K,A*34
$GPGGA,214234.00,3002.79820,N,03121.07874,E,1,07,1.09,140.5,M,15.3,M,,*5E
$GPGSA,A,3,07,09,04,30,06,03,02,,,,,,2.16,1.09,1.86*0E
$GPGSV,3,1,10,02,17,301,25,03,28,137,34,04,37,061,36,06,34,265,24*74
$GPGSV,3,2,10,07,76,262,38,09,58,012,37,16,18,052,,22,05,141,22*79
$GPGSV,3,3,10,30,36,233,31,39,54,193,34*79
$GPGLL,3002.79820,N,03121.07874,E,214234.00,A,A*EEEEEEEEEEEEEEEEEEEEEEEEEEEEEEEEEEEEEEEEEEEEEEEEEEEEEEEEEEEEEEEEEEEEEEEEEEEEEEEEEEEEEEEEEEEEEEEEEEEEEEEEEEEEEEEEEEEEEEEEEEEEEEEEEEEEEEEEEEEEEEEEEEEEEEEEEEEEEEEEEEEEEEEEEEEEEEEEEEEEEEEEEEEEEEEEEEEEEEEEEEEEEEEEEEEEEEEEEEEEEEEEEEEEEEEEEEEEEEEEEEEEEEEEEEEEEEEEEEEEEEEEEEEEEEEEEEEEEEEEEEEEEEEEEEEEEEEEEEEEEEEEEEEEEEEEEEEEEEEEEEEEEEEEEEEEEEEEEEEEEEEEEEEEEEEEEEEEEEEEEEEEEEEEEEEEEEEEEEEEEEEEEEEEEE$GPRMC,214236.00,A,3002.79720,N,03121.07898,E,1.866,166.89,110621,,,A*67
$GPVTG,166.89,T,,M,1.866,N,3.455,K,A*33
$GPGGA,214236.00,3002.79720,N,03121.07898,E,1,07,1.14,140.4,M,15.3,M,,*5C
$GPGSA,A,3,07,09,04,30,06,03,02,,,,,,2.19,1.14,1.86*0D
$GPGSV,3,1,10,02,17,301,28,03,28,137,32,04,37,061,36,06,34,265,23*78
$GPGSV,3,2,10,07,76,262,38,09,58,012,38,16,18,052,,22,05,141,29*7D
$GPGSV,3,3,10,30,36,233,33,39,54,193,35*7A
$GPGLL,3002.79720,N,03121.07898,E,214236.00,A,A*EEEEEEEEEEEEEEEEEEEEEEEEEEEEEEEEEEEEEEEEEEEEEEEEEEEEEEEEEEEEEEEEEEEEEEEEEEEEEEEEEEEEEEEEEEEEEEEEEEEEEEEEEEEEEEEEEEEEEEEEEEEEEEEEEEEEEEEEEEEEEEEEEEEEEEEEEEEEEEEEEEEEEEEEEEEEEEEEEEEEEEEEEEEEEEEEEEEEEEEEEEEEEEEEEEEEEEEEEEEEEEEEEEEEEEEEEEEEEEEEEEEEEEEEEEEEEEEEEEEEEEEEEEEEEEEEEEEEEEEEEEEEEEEEEEEEEEEEEEEEEEEEEEEEEEEEEEEEEEEEEEEEEEEEEEEEEEEEEEEEEEEEEEEEEEEEEEEEEEEEEEEEEEEEEEEEEEEEEEEEEEEEEEEEEEEE$GPRMC,214238.00,A,3002.79609,N,03121.07913,E,1.822,171.97,110621,,,A*68
$GPVTG,171.97,T,,M,1.822,N,3.374,K,A*3E
$GPGGA,214238.00,3002.79609,N,03121.07913,E,1,07,1.14,140.5,M,15.3,M,,*5B
$GPGSA,A,3,07,09,04,30,06,03,02,,,,,,2.19,1.14,1.86*0D
$GPGSV,3,1,10,02,17,301,21,03,28,137,35,04,37,061,38,06,34,265,23*78
$GPGSV,3,2,10,07,76,262,39,09,58,012,36,16,18,052,,22,05,141,28*73
$GPGSV,3,3,10,30,36,233,36,39,54,193,32*78
$GPGLL,3002.79609,N,03121.07913,E,214238.00,A,A*EEEEEEEEEEEEEEEEEEEEEEEEEEEEEEEEEEEEEEEEEEEEEEEEEEEEEEEEEEEEEEEEEEEEEEEEEEEEEEEEEEEEEEEEEEEEEEEEEEEEEEEEEEEEEEEEEEEEEEEEEEEEEEEEEEEEEEEEEEEEEEEEEEEEEEEEEEEEEEEEEEEEEEEEEEEEEEEEEEEEEEEEEEEEEEEEEEEEEEEEEEEEEEEEEEEEEEEEEEEEEEEEEEEEEEEEEEEEEEEEEEEEEEEEEEEEEEEEEEEEEEEEEEEEEEEEEEEEEEEEEEEEEEEEEEEEEEEEEEEEEEEEEEEEEEEEEEEEEEEEEEEEEEEEEEEEEEEEEEEEEEEEEEEEEEEEEEEEEEEEEEEEEEEEEEEEEEEEEEEEEEEEEEEEEEEEE$GPRMC,214240.00,A,3002.79502,N,03121.07925,E,1.751,172.57,110621,,,A*6E
$GPVTG,172.57,T,,M,1.751,N,3.243,K,A*3F
$GPGGA,214240.00,3002.79502,N,03121.07925,E,1,07,1.09,140.8,M,15.3,M,,*58
$GPGSA,A,3,07,09,04,30,06,03,02,,,,,,2.16,1.09,1.86*0E
$GPGSV,3,1,10,02,17,301,22,03,28,137,31,04,37,061,36,06,34,265,23*71
$GPGSV,3,2,10,07,76,262,39,09,58,012,39,16,18,052,,22,05,141,29*7D
$GPGSV,3,3,10,30,36,233,33,39,54,193,33*7C
$GPGLL,3002.79502,N,03121.07925,E,214240.00,A,A*EEEEEEEEEEEEEEEEEEEEEEEEEEEEEEEEEEEEEEEEEEEEEEEEEEEEEEEEEEEEEEEEEEEEEEEEEEEEEEEEEEEEEEEEEEEEEEEEEEEEEEEEEEEEEEEEEEEEEEEEEEEEEEEEEEEEEEEEEEEEEEEEEEEEEEEEEEEEEEEEEEEEEEEEEEEEEEEEEEEEEEEEEEEEEEEEEEEEEEEEEEEEEEEEEEEEEEEEEEEEEEEEEEEEEEEEEEEEEEEEEEEEEEEEEEEEEEEEEEEEEEEEEEEEEEEEEEEEEEEEEEEEEEEEEEEEEEEEEEEEEEEEEEEEEEEEEEEEEEEEEEEEEEEEEEEEEEEEEEEEEEEEEEEEEEEEEEEEEEEEEEEEEEEEEEEEEEEEEEEEEEEEEEEEEEEEE$GPRMC,214242.00,A,3002.79409,N,03121.07945,E,1.613,168.64,110621,,,A*6C
$GPVTG,168.64,T,,M,1.613,N,2.987,K,A*31
$GPGGA,214242.00,3002.79409,N,03121.07945,E,1,07,1.09,141.0,M,15.3,M,,*5F
$GPGSA,A,3,07,09,04,30,06,03,02,,,,,,2.16,1.09,1.86*0E
$GPGSV,3,1,10,02,17,301,19,03,28,137,35,04,37,061,38,06,34,265,29*79
$GPGSV,3,2,10,07,76,262,39,09,58,012,39,16,18,052,,22,05,141,25*71
$GPGSV,3,3,10,30,36,233,31,39,54,193,32*7F
$GPGLL,3002.79409,N,03121.07945,E,214242.00,A,A*EEEEEEEEEEEEEEEEEEEEEEEEEEEEEEEEEEEEEEEEEEEEEEEEEEEEEEEEEEEEEEEEEEEEEEEEEEEEEEEEEEEEEEEEEEEEEEEEEEEEEEEEEEEEEEEEEEEEEEEEEEEEEEEEEEEEEEEEEEEEEEEEEEEEEEEEEEEEEEEEEEEEEEEEEEEEEEEEEEEEEEEEEEEEEEEEEEEEEEEEEEEEEEEEEEEEEEEEEEEEEEEEEEEEEEEEEEEEEEEEEEEEEEEEEEEEEEEEEEEEEEEEEEEEEEEEEEEEEEEEEEEEEEEEEEEEEEEEEEEEEEEEEEEEEEEEEEEEEEEEEEEEEEEEEEEEEEEEEEEEEEEEEEEEEEEEEEEEEEEEEEEEEEEEEEEEEEEEEEEEEEEEEEEEEEEE$GPRMC,214244.00,A,3002.79309,N,03121.08009,E,1.475,168.93,110621,,,A*69
$GPVTG,168.93,T,,M,1.475,N,2.732,K,A*3B
$GPGGA,214244.00,3002.79309,N,03121.08009,E,1,07,1.09,142.3,M,15.3,M,,*50
$GPGSA,A,3,07,09,04,30,06,03,02,,,,,,2.16,1.09,1.86*0E
$GPGSV,3,1,10,02,17,301,18,03,28,137,32,04,37,061,40,06,34,265,26*7F
$GPGSV,3,2,10,07,76,262,38,09,58,012,37,16,18,052,,22,05,141,30*7A
$GPGSV,3,3,10,30,36,233,34,39,54,193,32*7A
$GPGLL,3002.79309,N,03121.08009,E,214244.00,A,A*EEEEEEEEEEEEEEEEEEEEEEEEEEEEEEEEEEEEEEEEEEEEEEEEEEEEEEEEEEEEEEEEEEEEEEEEEEEEEEEEEEEEEEEEEEEEEEEEEEEEEEEEEEEEEEEEEEEEEEEEEEEEEEEEEEEEEEEEEEEEEEEEEEEEEEEEEEEEEEEEEEEEEEEEEEEEEEEEEEEEEEEEEEEEEEEEEEEEEEEEEEEEEEEEEEEEEEEEEEEEEEEEEEEEEEEEEEEEEEEEEEEEEEEEEEEEEEEEEEEEEEEEEEEEEEEEEEEEEEEEEEEEEEEEEEEEEEEEEEEEEEEEEEEEEEEEEEEEEEEEEEEEEEEEEEEEEEEEEEEEEEEEEEEEEEEEEEEEEEEEEEEEEEEEEEEEEEEEEEEEEEEEEEEEE$GPRMC,214246.00,A,3002.79201,N,03121.08068,E,1.724,162.20,110621,,,A*60
$GPVTG,162.20,T,,M,1.724,N,3.193,K,A*32
$GPGGA,214246.00,3002.79201,N,03121.08068,E,1,07,1.09,143.2,M,15.3,M,,*5C
$GPGSA,A,3,07,09,04,30,06,03,02,,,,,,2.16,1.09,1.86*0E
$GPGSV,3,1,10,02,17,301,18,03,28,137,27,04,37,061,36,06,34,265,25*79
$GPGSV,3,2,10,07,76,262,38,09,58,012,37,16,18,052,,22,05,141,22*79
$GPGSV,3,3,10,30,36,233,37,39,54,193,32*79
$GPGLL,3002.79201,N,03121.08068,E,214246.00,A,A*EEEEEEEEEEEEEEEEEEEEEEEEEEEEEEEEEEEEEEEEEEEEEEEEEEEEEEEEEEEEEEEEEEEEEEEEEEEEEEEEEEEEEEEEEEEEEEEEEEEEEEEEEEEEEEEEEEEEEEEEEEEEEEEEEEEEEEEEEEEEEEEEEEEEEEEEEEEEEEEEEEEEEEEEEEEEEEEEEEEEEEEEEEEEEEEEEEEEEEEEEEEEEEEEEEEEEEEEEEEEEEEEEEEEEEEEEEEEEEEEEEEEEEEEEEEEEEEEEEEEEEEEEEEEEEEEEEEEEEEEEEEEEEEEEEEEEEEEEEEEEEEEEEEEEEEEEEEEEEEEEEEEEEEEEEEEEEEEEEEEEEEEEEEEEEEEEEEEEEEEEEEEEEEEEEEEEEEEEEEEEEEEEEEEEEEEEEE$GPRMC,214248.00,A,3002.79104,N,03121.08143,E,1.597,160.69,110621,,,A*65
$GPVTG,160.69,T,,M,1.597,N,2.957,K,A*36
$GPGGA,214248.00,3002.79104,N,03121.08143,E,1,07,1.09,144.5,M,15.3,M,,*5C
$GPGSA,A,3,07,09,04,30,06,03,02,,,,,,2.16,1.09,1.86*0E
$GPGSV,3,1,10,02,17,301,18,03,28,137,28,04,37,061,37,06,34,265,30*73
$GPGSV,3,2,10,07,76,262,37,09,58,012,39,16,18,052,15,22,05,141,18*75
$GPGSV,3,3,10,30,36,233,34,39,54,193,34*7C
$GPGLL,3002.79104,N,03121.08143,E,214248.00,A,A*EEEEEEEEEEEEEEEEEEEEEEEEEEEEEEEEEEEEEEEEEEEEEEEEEEEEEEEEEEEEEEEEEEEEEEEEEEEEEEEEEEEEEEEEEEEEEEEEEEEEEEEEEEEEEEEEEEEEEEEEEEEEEEEEEEEEEEEEEEEEEEEEEEEEEEEEEEEEEEEEEEEEEEEEEEEEEEEEEEEEEEEEEEEEEEEEEEEEEEEEEEEEEEEEEEEEEEEEEEEEEEEEEEEEEEEEEEEEEEEEEEEEEEEEEEEEEEEEEEEEEEEEEEEEEEEEEEEEEEEEEEEEEEEEEEEEEEEEEEEEEEEEEEEEEEEEEEEEEEEEEEEEEEEEEEEEEEEEEEEEEEEEEEEEEEEEEEEEEEEEEEEEEEEEEEEEEEEEEEEEEEEEEE$GPRMC,214250.00,A,3002.78995,N,03121.08190,E,1.772,168.95,110621,,,A*61
$GPVTG,168.95,T,,M,1.772,N,3.281,K,A*35
$GPGGA,214250.00,3002.78995,N,03121.08190,E,1,07,1.09,145.2,M,15.3,M,,*5C
$GPGSA,A,3,07,09,04,30,06,03,02,,,,,,2.16,1.09,1.86*0E
$GPGSV,3,1,10,02,17,301,21,03,28,137,29,04,37,061,38,06,34,265,32*75
$GPGSV,3,2,10,07,76,262,38,09,58,012,36,16,18,052,,22,05,141,17*7E
$GPGSV,3,3,10,30,36,233,34,39,54,193,31*79
$GPGLL,3002.78995,N,03121.08190,E,214250.00,A,A*EEEEEEEEEEEEEEEEEEEEEEEEEEEEEEEEEEEEEEEEEEEEEEEEEEEEEEEEEEEEEEEEEEEEEEEEEEEEEEEEEEEEEEEEEEEEEEEEEEEEEEEEEEEEEEEEEEEEEEEEEEEEEEEEEEEEEEEEEEEEEEEEEEEEEEEEEEEEEEEEEEEEEEEEEEEEEEEEEEEEEEEEEEEEEEEEEEEEEEEEEEEEEEEEEEEEEEEEEEEEEEEEEEEEEEEEEEEEEEEEEEEEEEEEEEEEEEEEEEEEEEEEEEEEEEEEEEEEEEEEEEEEEEEEEEEEEEEEEEEEEEEEEEEEEEEEEEEEEEEEEEEEEEEEEEEEEEEEEEEEEEEEEEEEEEEEEEEEEEEEEEEEEEEEEEEEEEEEEEEEEEEEEEEEEEEEEEEEEE$GPRMC,214252.00,A,3002.78941,N,03121.08115,E,1.820,177.51,110621,,,A*69
$GPVTG,177.51,T,,M,1.820,N,3.371,K,A*35
$GPGGA,214252.00,3002.78941,N,03121.08115,E,1,07,1.09,142.6,M,15.3,M,,*59
$GPGSA,A,3,07,09,04,30,06,03,02,,,,,,2.16,1.09,1.86*0E
$GPGSV,3,1,10,02,17,301,20,03,28,137,33,04,37,061,38,06,34,265,35*78
$GPGSV,3,2,10,07,76,262,40,09,58,012,38,16,18,052,25,22,05,141,16*79
$GPGSV,3,3,10,30,36,233,29,39,54,193,32*76
$GPGLL,3002.78941,N,03121.08115,E,214252.00,A,A*EEEEEEEEEEEEEEEEEEEEEEEEEEEEEEEEEEEEEEEEEEEEEEEEEEEEEEEEEEEEEEEEEEEEEEEEEEEEEEEEEEEEEEEEEEEEEEEEEEEEEEEEEEEEEEEEEEEEEEEEEEEEEEEEEEEEEEEEEEEEEEEEEEEEEEEEEEEEEEEEEEEEEEEEEEEEEEEEEEEEEEEEEEEEEEEEEEEEEEEEEEEEEEEEEEEEEEEEEEEEEEEEEEEEEEEEEEEEEEEEEEEEEEEEEEEEEEEEEEEEEEEEEEEEEEEEEEEEEEEEEEEEEEEEEEEEEEEEEEEEEEEEEEEEEEEEEEEEEEEEEEEEEEEEEEEEEEEEEEEEEEEEEEEEEEEEEEEEEEEEEEEEEEEEEEEEEEEEEEEEEEEEEE$GPRMC,214254.00,A,3002.78848,N,03121.08099,E,1.804,178.17,110621,,,A*69
$GPVTG,178.17,T,,M,1.804,N,3.340,K,A*3C
$GPGGA,214254.00,3002.78848,N,03121.08099,E,1,07,1.09,141.7,M,15.3,M,,*50
$GPGSA,A,3,07,09,04,30,06,03,02,,,,,,2.16,1.09,1.86*0E
$GPGSV,3,1,10,02,17,301,18,03,28,137,33,04,37,061,33,06,34,265,31*7C
$GPGSV,3,2,10,07,76,262,39,09,58,012,38,16,18,052,,22,05,141,16*70
$GPGSV,3,3,10,30,36,233,30,39,54,193,32*7E
$GPGLL,3002.78848,N,03121.08099,E,214254.00,A,A*EEEEEEEEEEEEEEEEEEEEEEEEEEEEEEEEEEEEEEEEEEEEEEEEEEEEEEEEEEEEEEEEEEEEEEEEEEEEEEEEEEEEEEEEEEEEEEEEEEEEEEEEEEEEEEEEEEEEEEEEEEEEEEEEEEEEEEEEEEEEEEEEEEEEEEEEEEEEEEEEEEEEEEEEEEEEEEEEEEEEEEEEEEEEEEEEEEEEEEEEEEEEEEEEEEEEEEEEEEEEEEEEEEEEEEEEEEEEEEEEEEEEEEEEEEEEEEEEEEEEEEEEEEEEEEEEEEEEEEEEEEEEEEEEEEEEEEEEEEEEEEEEEEEEEEEEEEEEEEEEEEEEEEEEEEEEEEEEEEEEEEEEEEEEEEEEEEEEEEEEEEEEEEEEEEEEEEEEEEEEEEEEEEEEEEE$GPRMC,214256.00,A,3002.78739,N,03121.08117,E,1.785,180.40,110621,,,A*66
$GPVTG,180.40,T,,M,1.785,N,3.306,K,A*3D
$GPGGA,214256.00,3002.78739,N,03121.08117,E,1,07,1.09,142.0,M,15.3,M,,*58
$GPGSA,A,3,07,09,04,30,06,03,02,,,,,,2.16,1.09,1.86*0E
$GPGSV,3,1,10,02,17,301,17,03,28,137,31,04,37,061,38,06,34,265,26*7C
$GPGSV,3,2,10,07,76,262,39,09,58,012,38,16,18,052,,22,05,141,18*7E
$GPGSV,3,3,10,30,36,233,30,39,54,193,32*7E
$GPGLL,3002.78739,N,03121.08117,E,214256.00,A,A*EEEEEEEEEEEEEEEEEEEEEEEEEEEEEEEEEEEEEEEEEEEEEEEEEEEEEEEEEEEEEEEEEEEEEEEEEEEEEEEEEEEEEEEEEEEEEEEEEEEEEEEEEEEEEEEEEEEEEEEEEEEEEEEEEEEEEEEEEEEEEEEEEEEEEEEEEEEEEEEEEEEEEEEEEEEEEEEEEEEEEEEEEEEEEEEEEEEEEEEEEEEEEEEEEEEEEEEEEEEEEEEEEEEEEEEEEEEEEEEEEEEEEEEEEEEEEEEEEEEEEEEEEEEEEEEEEEEEEEEEEEEEEEEEEEEEEEEEEEEEEEEEEEEEEEEEEEEEEEEEEEEEEEEEEEEEEEEEEEEEEEEEEEEEEEEEEEEEEEEEEEEEEEEEEEEEEEEEEEEEEEEEEEEEEEE$GPRMC,214258.00,A,3002.78627,N,03121.08135,E,1.629,177.61,110621,,,A*6A
$GPVTG,177.61,T,,M,1.629,N,3.016,K,A*33
$GPGGA,214258.00,3002.78627,N,03121.08135,E,1,07,1.09,142.3,M,15.3,M,,*5B
$GPGSA,A,3,07,09,04,30,06,03,02,,,,,,2.16,1.09,1.86*0E
$GPGSV,3,1,10,02,17,301,17,03,28,137,34,04,37,061,38,06,34,265,25*7A
$GPGSV,3,2,10,07,76,262,37,09,58,012,38,16,18,052,,22,05,141,19*71
$GPGSV,3,3,10,30,36,233,29,39,54,193,34*70
$GPGLL,3002.78627,N,03121.08135,E,214258.00,A,A*EEEEEEEEEEEEEEEEEEEEEEEEEEEEEEEEEEEEEEEEEEEEEEEEEEEEEEEEEEEEEEEEEEEEEEEEEEEEEEEEEEEEEEEEEEEEEEEEEEEEEEEEEEEEEEEEEEEEEEEEEEEEEEEEEEEEEEEEEEEEEEEEEEEEEEEEEEEEEEEEEEEEEEEEEEEEEEEEEEEEEEEEEEEEEEEEEEEEEEEEEEEEEEEEEEEEEEEEEEEEEEEEEEEEEEEEEEEEEEEEEEEEEEEEEEEEEEEEEEEEEEEEEEEEEEEEEEEEEEEEEEEEEEEEEEEEEEEEEEEEEEEEEEEEEEEEEEEEEEEEEEEEEEEEEEEEEEEEEEEEEEEEEEEEEEEEEEEEEEEEEEEEEEEEEEEEEEEEEEEEEEEEEEEEEEE$GPRMC,214300.00,A,3002.78524,N,03121.08164,E,1.449,173.79,110621,,,A*6B
$GPVTG,173.79,T,,M,1.449,N,2.684,K,A*36
$GPGGA,214300.00,3002.78524,N,03121.08164,E,1,07,1.09,142.9,M,15.3,M,,*59
$GPGSA,A,3,07,09,04,30,06,03,02,,,,,,2.16,1.09,1.86*0E
$GPGSV,3,1,10,02,17,301,18,03,28,137,26,04,37,061,37,06,34,265,24*78
$GPGSV,3,2,10,07,76,262,39,09,58,012,36,16,18,052,,22,05,141,16*7E
$GPGSV,3,3,10,30,36,233,28,39,54,193,29*7D
$GPGLL,3002.78524,N,03121.08164,E,214300.00,A,A*EEEEEEEEEEEEEEEEEEEEEEEEEEEEEEEEEEEEEEEEEEEEEEEEEEEEEEEEEEEEEEEEEEEEEEEEEEEEEEEEEEEEEEEEEEEEEEEEEEEEEEEEEEEEEEEEEEEEEEEEEEEEEEEEEEEEEEEEEEEEEEEEEEEEEEEEEEEEEEEEEEEEEEEEEEEEEEEEEEEEEEEEEEEEEEEEEEEEEEEEEEEEEEEEEEEEEEEEEEEEEEEEEEEEEEEEEEEEEEEEEEEEEEEEEEEEEEEEEEEEEEEEEEEEEEEEEEEEEEEEEEEEEEEEEEEEEEEEEEEEEEEEEEEEEEEEEEEEEEEEEEEEEEEEEEEEEEEEEEEEEEEEEEEEEEEEEEEEEEEEEEEEEEEEEEEEEEEEEEEEEEEEEEEEEEEEEE$GPRMC,214302.00,A,3002.78423,N,03121.08204,E,1.785,172.97,110621,,,A*68
$GPVTG,172.97,T,,M,1.785,N,3.307,K,A*3B
$GPGGA,214302.00,3002.78423,N,03121.08204,E,1,07,1.09,143.4,M,15.3,M,,*54
$GPGSA,A,3,07,09,04,30,06,03,02,,,,,,2.16,1.09,1.86*0E
$GPGSV,3,1,10,02,17,301,17,03,28,137,30,04,37,061,37,06,34,265,24*70
$GPGSV,3,2,10,07,76,262,37,09,58,012,36,16,18,052,16,22,05,141,13*72
$GPGSV,3,3,10,30,36,233,30,39,54,193,30*7C
$GPGLL,3002.78423,N,03121.08204,E,214302.00,A,A*EEEEEEEEEEEEEEEEEEEEEEEEEEEEEEEEEEEEEEEEEEEEEEEEEEEEEEEEEEEEEEEEEEEEEEEEEEEEEEEEEEEEEEEEEEEEEEEEEEEEEEEEEEEEEEEEEEEEEEEEEEEEEEEEEEEEEEEEEEEEEEEEEEEEEEEEEEEEEEEEEEEEEEEEEEEEEEEEEEEEEEEEEEEEEEEEEEEEEEEEEEEEEEEEEEEEEEEEEEEEEEEEEEEEEEEEEEEEEEEEEEEEEEEEEEEEEEEEEEEEEEEEEEEEEEEEEEEEEEEEEEEEEEEEEEEEEEEEEEEEEEEEEEEEEEEEEEEEEEEEEEEEEEEEEEEEEEEEEEEEEEEEEEEEEEEEEEEEEEEEEEEEEEEEEEEEEEEEEEEEEEEEEEEEEE$GPRMC,214304.00,A,3002.78312,N,03121.08254,E,1.782,167.88,110621,,,A*63
$GPVTG,167.88,T,,M,1.782,N,3.299,K,A*30
$GPGGA,214304.00,3002.78312,N,03121.08254,E,1,07,1.09,144.3,M,15.3,M,,*52
$GPGSA,A,3,07,09,04,30,06,03,02,,,,,,2.16,1.09,1.86*0E
$GPGSV,3,1,10,02,17,301,16,03,28,137,34,04,37,061,33,06,34,265,26*73
$GPGSV,3,2,10,07,76,262,39,09,58,012,36,16,18,052,19,22,05,141,14*74
$GPGSV,3,3,10,30,36,233,34,39,54,193,34*7C
$GPGLL,3002.78312,N,03121.08254,E,214304.00,A,A*EEEEEEEEEEEEEEEEEEEEEEEEEEEEEEEEEEEEEEEEEEEEEEEEEEEEEEEEEEEEEEEEEEEEEEEEEEEEEEEEEEEEEEEEEEEEEEEEEEEEEEEEEEEEEEEEEEEEEEEEEEEEEEEEEEEEEEEEEEEEEEEEEEEEEEEEEEEEEEEEEEEEEEEEEEEEEEEEEEEEEEEEEEEEEEEEEEEEEEEEEEEEEEEEEEEEEEEEEEEEEEEEEEEEEEEEEEEEEEEEEEEEEEEEEEEEEEEEEEEEEEEEEEEEEEEEEEEEEEEEEEEEEEEEEEEEEEEEEEEEEEEEEEEEEEEEEEEEEEEEEEEEEEEEEEEEEEEEEEEEEEEEEEEEEEEEEEEEEEEEEEEEEEEEEEEEEEEEEEEEEEEEEEEEEEE$GPRMC,214306.00,A,3002.78193,N,03121.08283,E,1.830,171.81,110621,,,A*68
$GPVTG,171.81,T,,M,1.830,N,3.390,K,A*30
$GPGGA,214306.00,3002.78193,N,03121.08283,E,1,08,1.03,144.6,M,15.3,M,,*51
$GPGSA,A,3,07,09,04,30,06,03,16,02,,,,,1.92,1.03,1.62*06
$GPGSV,3,1,10,02,17,301,17,03,28,137,33,04,37,061,38,06,34,265,33*7A
$GPGSV,3,2,10,07,76,262,38,09,58,012,36,16,18,052,20,22,05,141,13*78
$GPGSV,3,3,10,30,36,233,32,39,54,193,33*7D
$GPGLL,3002.78193,N,03121.08283,E,214306.00,A,A*EEEEEEEEEEEEEEEEEEEEEEEEEEEEEEEEEEEEEEEEEEEEEEEEEEEEEEEEEEEEEEEEEEEEEEEEEEEEEEEEEEEEEEEEEEEEEEEEEEEEEEEEEEEEEEEEEEEEEEEEEEEEEEEEEEEEEEEEEEEEEEEEEEEEEEEEEEEEEEEEEEEEEEEEEEEEEEEEEEEEEEEEEEEEEEEEEEEEEEEEEEEEEEEEEEEEEEEEEEEEEEEEEEEEEEEEEEEEEEEEEEEEEEEEEEEEEEEEEEEEEEEEEEEEEEEEEEEEEEEEEEEEEEEEEEEEEEEEEEEEEEEEEEEEEEEEEEEEEEEEEEEEEEEEEEEEEEEEEEEEEEEEEEEEEEEEEEEEEEEEEEEEEEEEEEEEEEEEEEEEEEE$GPRMC,214308.00,A,3002.78083,N,03121.08278,E,1.815,183.78,110621,,,A*6E
$GPVTG,183.78,T,,M,1.815,N,3.361,K,A*32
$GPGGA,214308.00,3002.78083,N,03121.08278,E,1,08,0.99,144.8,M,15.3,M,,*57
$GPGSA,A,3,07,09,04,30,06,03,16,02,,,,,1.89,0.99,1.61*0D
$GPGSV,3,1,10,02,17,300,19,03,28,137,36,04,37,061,34,06,34,265,24*7A
$GPGSV,3,2,10,07,76,262,39,09,58,012,35,16,18,052,18,22,05,141,13*71
$GPGSV,3,3,10,30,36,233,35,39,54,193,34*7D
$GPGLL,3002.78083,N,03121.08278,E,214308.00,A,A*EEEEEEEEEEEEEEEEEEEEEEEEEEEEEEEEEEEEEEEEEEEEEEEEEEEEEEEEEEEEEEEEEEEEEEEEEEEEEEEEEEEEEEEEEEEEEEEEEEEEEEEEEEEEEEEEEEEEEEEEEEEEEEEEEEEEEEEEEEEEEEEEEEEEEEEEEEEEEEEEEEEEEEEEEEEEEEEEEEEEEEEEEEEEEEEEEEEEEEEEEEEEEEEEEEEEEEEEEEEEEEEEEEEEEEEEEEEEEEEEEEEEEEEEEEEEEEEEEEEEEEEEEEEEEEEEEEEEEEEEEEEEEEEEEEEEEEEEEEEEEEEEEEEEEEEEEEEEEEEEEEEEEEEEEEEEEEEEEEEEEEEEEEEEEEEEEEEEEEEEEEEEEEEEEEEEEEEEEEEEEEEEEEEEEEE$GPRMC,214310.00,A,3002.77973,N,03121.08284,E,1.643,184.06,110621,,,A*6E
$GPVTG,184.06,T,,M,1.643,N,3.043,K,A*32
$GPGGA,214310.00,3002.77973,N,03121.08284,E,1,07,1.09,145.4,M,15.3,M,,*5E
$GPGSA,A,3,07,09,04,30,06,03,02,,,,,,2.16,1.09,1.86*0E
$GPGSV,3,1,10,02,17,300,18,03,28,137,35,04,37,061,28,06,34,265,26*77
$GPGSV,3,2,10,07,76,262,39,09,58,012,34,16,18,052,17,22,05,141,13*7F
$GPGSV,3,3,10,30,36,233,33,39,54,193,31*7E
$GPGLL,3002.77973,N,03121.08284,E,214310.00,A,A*EEEEEEEEEEEEEEEEEEEEEEEEEEEEEEEEEEEEEEEEEEEEEEEEEEEEEEEEEEEEEEEEEEEEEEEEEEEEEEEEEEEEEEEEEEEEEEEEEEEEEEEEEEEEEEEEEEEEEEEEEEEEEEEEEEEEEEEEEEEEEEEEEEEEEEEEEEEEEEEEEEEEEEEEEEEEEEEEEEEEEEEEEEEEEEEEEEEEEEEEEEEEEEEEEEEEEEEEEEEEEEEEEEEEEEEEEEEEEEEEEEEEEEEEEEEEEEEEEEEEEEEEEEEEEEEEEEEEEEEEEEEEEEEEEEEEEEEEEEEEEEEEEEEEEEEEEEEEEEEEEEEEEEEEEEEEEEEEEEEEEEEEEEEEEEEEEEEEEEEEEEEEEEEEEEEEEEEEEEEEEEEEEEEEEE$GPRMC,214312.00,A,3002.77874,N,03121.08272,E,1.739,187.47,110621,,,A*69
$GPVTG,187.47,T,,M,1.739,N,3.220,K,A*3F
$GPGGA,214312.00,3002.77874,N,03121.08272,E,1,07,1.09,145.4,M,15.3,M,,*53
$GPGSA,A,3,07,09,04,30,06,03,02,,,,,,2.16,1.09,1.86*0E
$GPGSV,3,1,10,02,17,300,16,03,28,137,36,04,37,061,33,06,34,265,23*75
$GPGSV,3,2,10,07,76,263,38,09,58,012,36,16,18,052,20,22,05,141,08*73
$GPGSV,3,3,10,30,36,233,32,39,54,193,32*7C
$GPGLL,3002.77874,N,03121.08272,E,214312.00,A,A*EEEEEEEEEEEEEEEEEEEEEEEEEEEEEEEEEEEEEEEEEEEEEEEEEEEEEEEEEEEEEEEEEEEEEEEEEEEEEEEEEEEEEEEEEEEEEEEEEEEEEEEEEEEEEEEEEEEEEEEEEEEEEEEEEEEEEEEEEEEEEEEEEEEEEEEEEEEEEEEEEEEEEEEEEEEEEEEEEEEEEEEEEEEEEEEEEEEEEEEEEEEEEEEEEEEEEEEEEEEEEEEEEEEEEEEEEEEEEEEEEEEEEEEEEEEEEEEEEEEEEEEEEEEEEEEEEEEEEEEEEEEEEEEEEEEEEEEEEEEEEEEEEEEEEEEEEEEEEEEEEEEEEEEEEEEEEEEEEEEEEEEEEEEEEEEEEEEEEEEEEEEEEEEEEEEEEEEEEEEEEEEEEEEEEE$GPRMC,214314.00,A,3002.77766,N,03121.08264,E,1.745,187.69,110621,,,A*63
$GPVTG,187.69,T,,M,1.745,N,3.231,K,A*38
$GPGGA,214314.00,3002.77766,N,03121.08264,E,1,08,1.09,146.1,M,15.3,M,,*57
$GPGSA,A,3,07,09,04,30,06,03,16,02,,,,,2.16,1.09,1.86*09
$GPGSV,3,1,10,02,17,300,17,03,28,137,36,04,37,061,27,06,34,265,22*70
$GPGSV,3,2,10,07,76,263,39,09,58,013,36,16,18,052,19,22,05,141,10*70
$GPGSV,3,3,10,30,36,233,34,39,54,193,32*7A
$GPGLL,3002.77766,N,03121.08264,E,214314.00,A,A*EEEEEEEEEEEEEEEEEEEEEEEEEEEEEEEEEEEEEEEEEEEEEEEEEEEEEEEEEEEEEEEEEEEEEEEEEEEEEEEEEEEEEEEEEEEEEEEEEEEEEEEEEEEEEEEEEEEEEEEEEEEEEEEEEEEEEEEEEEEEEEEEEEEEEEEEEEEEEEEEEEEEEEEEEEEEEEEEEEEEEEEEEEEEEEEEEEEEEEEEEEEEEEEEEEEEEEEEEEEEEEEEEEEEEEEEEEEEEEEEEEEEEEEEEEEEEEEEEEEEEEEEEEEEEEEEEEEEEEEEEEEEEEEEEEEEEEEEEEEEEEEEEEEEEEEEEEEEEEEEEEEEEEEEEEEEEEEEEEEEEEEEEEEEEEEEEEEEEEEEEEEEEEEEEEEEEEEEEEEEEEEEEEEE$GPRMC,214316.00,A,3002.77672,N,03121.08258,E,1.707,185.25,110621,,,A*66
$GPVTG,185.25,T,,M,1.707,N,3.161,K,A*32
$GPGGA,214316.00,3002.77672,N,03121.08258,E,1,08,1.09,145.8,M,15.3,M,,*54
$GPGSA,A,3,07,09,04,30,06,03,16,02,,,,,2.16,1.09,1.86*09
$GPGSV,3,1,11,02,17,300,16,03,28,137,33,04,37,061,23,06,34,265,19*79
$GPGSV,3,2,11,07,76,263,39,09,58,013,34,16,18,052,22,22,05,141,13*78
$GPGSV,3,3,11,30,36,233,32,39,54,193,33,40,46,139,33*41
$GPGLL,3002.77672,N,03121.08258,E,214316.00,A,A*EEEEEEEEEEEEEEEEEEEEEEEEEEEEEEEEEEEEEEEEEEEEEEEEEEEEEEEEEEEEEEEEEEEEEEEEEEEEEEEEEEEEEEEEEEEEEEEEEEEEEEEEEEEEEEEEEEEEEEEEEEEEEEEEEEEEEEEEEEEEEEEEEEEEEEEEEEEEEEEEEEEEEEEEEEEEEEEEEEEEEEEEEEEEEEEEEEEEEEEEEEEEEEEEEEEEEEEEEEEEEEEEEEEEEEEEEEEEEEEEEEEEEEEEEEEEEEEEEEEEEEEEEEEEEEEEEEEEEEEEEEEEEEEEEEEEEEEEEEEEEEEEEEEEEEEEEEEEEEEEEEEEEEEEEEEEEEEEEEEEEEEEEEEEEEEEEEEEEEEEEEEEEEEEEEEEEEE$GPRMC,214318.00,A,3002.77571,N,03121.08229,E,2.034,191.04,110621,,,A*6C
$GPVTG,191.04,T,,M,2.034,N,3.768,K,A*3F
$GPGGA,214318.00,3002.77571,N,03121.08229,E,1,08,1.09,145.8,M,15.3,M,,*5C
$GPGSA,A,3,07,09,04,30,06,03,16,02,,,,,2.16,1.09,1.86*09
$GPGSV,3,1,11,02,17,300,15,03,28,137,35,04,37,061,20,06,34,265,21*74
$GPGSV,3,2,11,07,76,263,38,09,58,013,35,16,18,052,19,22,05,141,16*75
$GPGSV,3,3,11,30,36,233,36,39,54,193,34,40,46,139,32*43
$GPGLL,3002.77571,N,03121.08229,E,214318.00,A,A*EEEEEEEEEEEEEEEEEEEEEEEEEEEEEEEEEEEEEEEEEEEEEEEEEEEEEEEEEEEEEEEEEEEEEEEEEEEEEEEEEEEEEEEEEEEEEEEEEEEEEEEEEEEEEEEEEEEEEEEEEEEEEEEEEEEEEEEEEEEEEEEEEEEEEEEEEEEEEEEEEEEEEEEEEEEEEEEEEEEEEEEEEEEEEEEEEEEEEEEEEEEEEEEEEEEEEEEEEEEEEEEEEEEEEEEEEEEEEEEEEEEEEEEEEEEEEEEEEEEEEEEEEEEEEEEEEEEEEEEEEEEEEEEEEEEEEEEEEEEEEEEEEEEEEEEEEEEEEEEEEEEEEEEEEEEEEEEEEEEEEEEEEEEEEEEEEEEEEEEEEEEEEEEEEEEEEEE$GPRMC,214320.00,A,3002.77451,N,03121.08183,E,1.865,196.15,110621,,,A*6F
$GPVTG,196.15,T,,M,1.865,N,3.454,K,A*3B
$GPGGA,214320.00,3002.77451,N,03121.08183,E,1,07,1.09,145.7,M,15.3,M,,*57
$GPGSA,A,3,07,09,04,30,06,03,02,,,,,,2.16,1.09,1.86*0E
$GPGSV,3,1,11,02,17,300,19,03,28,137,32,04,37,061,20,06,34,265,19*74
$GPGSV,3,2,11,07,76,263,39,09,58,013,33,16,18,052,19,22,05,141,14*70
$GPGSV,3,3,11,30,36,233,36,39,54,193,31,40,46,139,33*47
$GPGLL,3002.77451,N,03121.08183,E,214320.00,A,A*EEEEEEEEEEEEEEEEEEEEEEEEEEEEEEEEEEEEEEEEEEEEEEEEEEEEEEEEEEEEEEEEEEEEEEEEEEEEEEEEEEEEEEEEEEEEEEEEEEEEEEEEEEEEEEEEEEEEEEEEEEEEEEEEEEEEEEEEEEEEEEEEEEEEEEEEEEEEEEEEEEEEEEEEEEEEEEEEEEEEEEEEEEEEEEEEEEEEEEEEEEEEEEEEEEEEEEEEEEEEEEEEEEEEEEEEEEEEEEEEEEEEEEEEEEEEEEEEEEEEEEEEEEEEEEEEEEEEEEEEEEEEEEEEEEEEEEEEEEEEEEEEEEEEEEEEEEEEEEEEEEEEEEEEEEEEEEEEEEEEEEEEEEEEEEEEEEEEEEEEEEEEEEEEEEEEEEEEEE$GPRMC,214322.00,A,3002.77347,N,03121.08134,E,1.901,201.31,110621,,,A*69
$GPVTG,201.31,T,,M,1.901,N,3.520,K,A*31
$GPGGA,214322.00,3002.77347,N,03121.08134,E,1,07,1.09,145.9,M,15.3,M,,*57
$GPGSA,A,3,07,09,04,30,06,03,02,,,,,,2.16,1.09,1.86*0E
$GPGSV,3,1,11,02,17,300,12,03,28,137,33,04,37,061,19,06,34,265,21*7F
$GPGSV,3,2,11,07,76,263,38,09,58,013,28,16,18,052,,22,05,141,11*76
$GPGSV,3,3,11,30,36,233,35,39,54,193,33,40,46,139,32*47
$GPGLL,3002.77347,N,03121.08134,E,214322.00,A,A*EEEEEEEEEEEEEEEEEEEEEEEEEEEEEEEEEEEEEEEEEEEEEEEEEEEEEEEEEEEEEEEEEEEEEEEEEEEEEEEEEEEEEEEEEEEEEEEEEEEEEEEEEEEEEEEEEEEEEEEEEEEEEEEEEEEEEEEEEEEEEEEEEEEEEEEEEEEEEEEEEEEEEEEEEEEEEEEEEEEEEEEEEEEEEEEEEEEEEEEEEEEEEEEEEEEEEEEEEEEEEEEEEEEEEEEEEEEEEEEEEEEEEEEEEEEEEEEEEEEEEEEEEEEEEEEEEEEEEEEEEEEEEEEEEEEEEEEEEEEEEEEEEEEEEEEEEEEEEEEEEEEEEEEEEEEEEEEEEEEEEEEEEEEEEEEEEEEEEEEEEEEEEEEEEEEEEEEE$GPRMC,214324.00,A,3002.77269,N,03121.08075,E,1.586,209.47,110621,,,A*6C
$GPVTG,209.47,T,,M,1.586,N,2.938,K,A*3F
$GPGGA,214324.00,3002.77269,N,03121.08075,E,1,07,1.09,145.6,M,15.3,M,,*57
$GPGSA,A,3,07,09,04,30,06,03,02,,,,,,2.16,1.09,1.86*0E
$GPGSV,3,1,11,02,17,300,13,03,28,137,34,04,37,061,21,06,34,265,23*70
$GPGSV,3,2,11,07,76,263,37,09,58,013,30,16,18,052,,22,05,141,09*79
$GPGSV,3,3,11,30,36,233,34,39,54,193,33,40,46,139,30*44
$GPGLL,3002.77269,N,03121.08075,E,214324.00,A,A*EEEEEEEEEEEEEEEEEEEEEEEEEEEEEEEEEEEEEEEEEEEEEEEEEEEEEEEEEEEEEEEEEEEEEEEEEEEEEEEEEEEEEEEEEEEEEEEEEEEEEEEEEEEEEEEEEEEEEEEEEEEEEEEEEEEEEEEEEEEEEEEEEEEEEEEEEEEEEEEEEEEEEEEEEEEEEEEEEEEEEEEEEEEEEEEEEEEEEEEEEEEEEEEEEEEEEEEEEEEEEEEEEEEEEEEEEEEEEEEEEEEEEEEEEEEEEEEEEEEEEEEEEEEEEEEEEEEEEEEEEEEEEEEEEEEEEEEEEEEEEEEEEEEEEEEEEEEEEEEEEEEEEEEEEEEEEEEEEEEEEEEEEEEEEEEEEEEEEEEEEEEEEEEEEEEEEEEEEE$GPRMC,214326.00,A,3002.77199,N,03121.08023,E,0.875,,110621,,,A*77
$GPVTG,,T,,M,0.875,N,1.620,K,A*2C
$GPGGA,214326.00,3002.77199,N,03121.08023,E,1,07,1.09,145.5,M,15.3,M,,*59
$GPGSA,A,3,07,09,04,30,06,03,02,,,,,,2.16,1.09,1.86*0E
$GPGSV,3,1,11,02,17,300,13,03,28,137,31,04,37,061,21,06,34,265,21*77
$GPGSV,3,2,11,07,76,263,38,09,58,013,31,16,18,052,20,22,05,141,09*75
$GPGSV,3,3,11,30,36,233,36,39,54,193,32,40,46,139,31*46
$GPGLL,3002.77199,N,03121.08023,E,214326.00,A,A*EEEEEEEEEEEEEEEEEEEEEEEEEEEEEEEEEEEEEEEEEEEEEEEEEEEEEEEEEEEEEEEEEEEEEEEEEEEEEEEEEEEEEEEEEEEEEEEEEEEEEEEEEEEEEEEEEEEEEEEEEEEEEEEEEEEEEEEEEEEEEEEEEEEEEEEEEEEEEEEEEEEEEEEEEEEEEEEEEEEEEEEEEEEEEEEEEEEEEEEEEEEEEEEEEEEEEEEEEEEEEEEEEEEEEEEEEEEEEEEEEEEEEEEEEEEEEEEEEEEEEEEEEEEEEEEEEEEEEEEEEEEEEEEEEEEEEEEEEEEEEEEEEEEEEEEEEEEEEEEEEEEEEEEEEEEEEEEEEEEEEEEEEEEEEEEEEEEEEEEEEEEEEEEEEEEEEEEEEEEEEEEEEEEEEEE$GPRMC,214328.00,A,3002.77183,N,03121.07993,E,0.460,,110621,,,A*77
$GPVTG,,T,,M,0.460,N,0.853,K,A*2F
$GPGGA,214328.00,3002.77183,N,03121.07993,E,1,07,1.09,145.1,M,15.3,M,,*55
$GPGSA,A,3,07,09,04,30,06,03,02,,,,,,2.16,1.09,1.86*0E
$GPGSV,3,1,11,02,17,300,11,03,28,137,32,04,37,061,18,06,34,265,22*7F
$GPGSV,3,2,11,07,76,263,38,09,58,013,34,16,18,052,,22,05,141,09*72
$GPGSV,3,3,11,30,36,233,36,39,54,193,32,40,46,139,30*47
$GPGLL,3002.77183,N,03121.07993,E,214328.00,A,A*EEEEEEEEEEEEEEEEEEEEEEEEEEEEEEEEEEEEEEEEEEEEEEEEEEEEEEEEEEEEEEEEEEEEEEEEEEEEEEEEEEEEEEEEEEEEEEEEEEEEEEEEEEEEEEEEEEEEEEEEEEEEEEEEEEEEEEEEEEEEEEEEEEEEEEEEEEEEEEEEEEEEEEEEEEEEEEEEEEEEEEEEEEEEEEEEEEEEEEEEEEEEEEEEEEEEEEEEEEEEEEEEEEEEEEEEEEEEEEEEEEEEEEEEEEEEEEEEEEEEEEEEEEEEEEEEEEEEEEEEEEEEEEEEEEEEEEEEEEEEEEEEEEEEEEEEEEEEEEEEEEEEEEEEEEEEEEEEEEEEEEEEEEEEEEEEEEEEEEEEEEEEEEEEEEEEEEEEEEEEEEEEEEEE$GPRMC,214330.00,A,3002.77182,N,03121.07965,E,0.868,,110621,,,A*72
$GPVTG,,T,,M,0.868,N,1.607,K,A*25
$GPGGA,214330.00,3002.77182,N,03121.07965,E,1,07,1.09,144.0,M,15.3,M,,*54
$GPGSA,A,3,07,09,04,30,06,03,02,,,,,,2.16,1.09,1.86*0E
$GPGSV,3,1,11,02,17,300,10,03,28,137,30,04,37,061,16,06,34,265,25*75
$GPGSV,3,2,11,07,76,263,40,09,58,013,29,16,18,052,,22,05,141,09*71
$GPGSV,3,3,11,30,36,233,38,39,54,193,32,40,46,139,30*49
$GPGLL,3002.77182,N,03121.07965,E,214330.00,A,A*EEEEEEEEEEEEEEEEEEEEEEEEEEEEEEEEEEEEEEEEEEEEEEEEEEEEEEEEEEEEEEEEEEEEEEEEEEEEEEEEEEEEEEEEEEEEEEEEEEEEEEEEEEEEEEEEEEEEEEEEEEEEEEEEEEEEEEEEEEEEEEEEEEEEEEEEEEEEEEEEEEEEEEEEEEEEEEEEEEEEEEEEEEEEEEEEEEEEEEEEEEEEEEEEEEEEEEEEEEEEEEEEEEEEEEEEEEEEEEEEEEEEEEEEEEEEEEEEEEEEEEEEEEEEEEEEEEEEEEEEEEEEEEEEEEEEEEEEEEEEEEEEEEEEEEEEEEEEEEEEEEEEEEEEEEEEEEEEEEEEEEEEEEEEEEEEEEEEEEEEEEEEEEEEEEEEEEEEEEEEEEEEEEEEEEEEE$GPRMC,214332.00,A,3002.77112,N,03121.07888,E,1.863,217.93,110621,,,A*61
$GPVTG,217.93,T,,M,1.863,N,3.450,K,A*3D
$GPGGA,214332.00,3002.77112,N,03121.07888,E,1,07,1.09,144.0,M,15.3,M,,*5D
$GPGSA,A,3,07,09,04,30,06,03,02,,,,,,2.16,1.09,1.86*0E
$GPGSV,3,1,11,02,17,300,11,03,28,137,36,04,37,061,21,06,34,265,26*75
$GPGSV,3,2,11,07,76,263,38,09,58,013,32,16,18,052,,22,05,141,08*75
$GPGSV,3,3,11,30,36,233,35,39,54,193,33,40,46,139,33*46
$GPGLL,3002.77112,N,03121.07888,E,214332.00,A,A*EEEEEEEEEEEEEEEEEEEEEEEEEEEEEEEEEEEEEEEEEEEEEEEEEEEEEEEEEEEEEEEEEEEEEEEEEEEEEEEEEEEEEEEEEEEEEEEEEEEEEEEEEEEEEEEEEEEEEEEEEEEEEEEEEEEEEEEEEEEEEEEEEEEEEEEEEEEEEEEEEEEEEEEEEEEEEEEEEEEEEEEEEEEEEEEEEEEEEEEEEEEEEEEEEEEEEEEEEEEEEEEEEEEEEEEEEEEEEEEEEEEEEEEEEEEEEEEEEEEEEEEEEEEEEEEEEEEEEEEEEEEEEEEEEEEEEEEEEEEEEEEEEEEEEEEEEEEEEEEEEEEEEEEEEEEEEEEEEEEEEEEEEEEEEEEEEEEEEEEEEEEEEEEEEEEEEEEEEEE$GPRMC,214334.00,A,3002.77046,N,03121.07811,E,1.647,217.44,110621,,,A*65
$GPVTG,217.44,T,,M,1.647,N,3.050,K,A*3B
$GPGGA,214334.00,3002.77046,N,03121.07811,E,1,07,1.09,143.7,M,15.3,M,,*5B
$GPGSA,A,3,07,09,04,30,06,03,02,,,,,,2.16,1.09,1.86*0E
$GPGSV,3,1,11,02,17,300,10,03,28,137,35,04,37,061,24,06,34,265,30*75
$GPGSV,3,2,11,07,76,263,38,09,58,013,35,16,18,052,,22,05,141,07*7D
$GPGSV,3,3,11,30,36,233,32,39,54,193,34,40,46,139,34*41
$GPGLL,3002.77046,N,03121.07811,E,214334.00,A,A*EEEEEEEEEEEEEEEEEEEEEEEEEEEEEEEEEEEEEEEEEEEEEEEEEEEEEEEEEEEEEEEEEEEEEEEEEEEEEEEEEEEEEEEEEEEEEEEEEEEEEEEEEEEEEEEEEEEEEEEEEEEEEEEEEEEEEEEEEEEEEEEEEEEEEEEEEEEEEEEEEEEEEEEEEEEEEEEEEEEEEEEEEEEEEEEEEEEEEEEEEEEEEEEEEEEEEEEEEEEEEEEEEEEEEEEEEEEEEEEEEEEEEEEEEEEEEEEEEEEEEEEEEEEEEEEEEEEEEEEEEEEEEEEEEEEEEEEEEEEEEEEEEEEEEEEEEEEEEEEEEEEEEEEEEEEEEEEEEEEEEEEEEEEEEEEEEEEEEEEEEEEEEEEEEEEEEEEEEEEEE$GPRMC,214336.00,A,3002.76979,N,03121.07732,E,1.726,225.90,110621,,,A*63
$GPVTG,225.90,T,,M,1.726,N,3.196,K,A*3E
$GPGGA,214336.00,3002.76979,N,03121.07732,E,1,07,1.09,143.8,M,15.3,M,,*5C
$GPGSA,A,3,07,09,04,30,06,03,02,,,,,,2.16,1.09,1.86*0E
$GPGSV,3,1,11,02,17,300,10,03,28,137,31,04,37,061,24,06,34,265,31*70
$GPGSV,3,2,11,07,76,263,39,09,58,013,30,16,18,052,,22,05,141,07*79
$GPGSV,3,3,11,30,36,233,33,39,54,193,32,40,46,139,30*42
$GPGLL,3002.76979,N,03121.07732,E,214336.00,A,A*EEEEEEEEEEEEEEEEEEEEEEEEEEEEEEEEEEEEEEEEEEEEEEEEEEEEEEEEEEEEEEEEEEEEEEEEEEEEEEEEEEEEEEEEEEEEEEEEEEEEEEEEEEEEEEEEEEEEEEEEEEEEEEEEEEEEEEEEEEEEEEEEEEEEEEEEEEEEEEEEEEEEEEEEEEEEEEEEEEEEEEEEEEEEEEEEEEEEEEEEEEEEEEEEEEEEEEEEEEEEEEEEEEEEEEEEEEEEEEEEEEEEEEEEEEEEEEEEEEEEEEEEEEEEEEEEEEEEEEEEEEEEEEEEEEEEEEEEEEEEEEEEEEEEEEEEEEEEEEEEEEEEEEEEEEEEEEEEEEEEEEEEEEEEEEEEEEEEEEEEEEEEEEEEEEEEEEEE$GPRMC,214338.00,A,3002.76945,N,03121.07627,E,1.954,235.10,110621,,,A*65
$GPVTG,235.10,T,,M,1.954,N,3.619,K,A*3C
$GPGGA,214338.00,3002.76945,N,03121.07627,E,1,07,1.09,143.4,M,15.3,M,,*54
$GPGSA,A,3,07,09,04,30,06,03,02,,,,,,2.16,1.09,1.86*0E
$GPGSV,3,1,11,02,17,300,08,03,28,137,34,04,37,061,29,06,34,265,34*74
$GPGSV,3,2,11,07,76,263,40,09,58,013,35,16,18,052,,22,05,141,08*7D
$GPGSV,3,3,11,30,36,233,33,39,54,193,32,40,46,139,32*40
$GPGLL,3002.76945,N,03121.07627,E,214338.00,A,A*EEEEEEEEEEEEEEEEEEEEEEEEEEEEEEEEEEEEEEEEEEEEEEEEEEEEEEEEEEEEEEEEEEEEEEEEEEEEEEEEEEEEEEEEEEEEEEEEEEEEEEEEEEEEEEEEEEEEEEEEEEEEEEEEEEEEEEEEEEEEEEEEEEEEEEEEEEEEEEEEEEEEEEEEEEEEEEEEEEEEEEEEEEEEEEEEEEEEEEEEEEEEEEEEEEEEEEEEEEEEEEEEEEEEEEEEEEEEEEEEEEEEEEEEEEEEEEEEEEEEEEEEEEEEEEEEEEEEEEEEEEEEEEEEEEEEEEEEEEEEEEEEEEEEEEEEEEEEEEEEEEEEEEEEEEEEEEEEEEEEEEEEEEEEEEEEEEEEEEEEEEEEEEEEEEEEEEEEEEE$GPRMC,214340.00,A,3002.76934,N,03121.07489,E,1.800,246.19,110621,,,A*67
$GPVTG,246.19,T,,M,1.800,N,3.333,K,A*3C
$GPGGA,214340.00,3002.76934,N,03121.07489,E,1,07,1.09,141.9,M,15.3,M,,*54
$GPGSA,A,3,07,09,04,30,06,03,02,,,,,,2.16,1.09,1.86*0E
$GPGSV,3,1,11,02,17,300,09,03,28,137,31,04,37,061,21,06,34,265,34*78
$GPGSV,3,2,11,07,76,263,38,09,58,013,37,16,18,052,,22,05,141,08*70
$GPGSV,3,3,11,30,36,233,37,39,54,193,28,40,46,139,28*44
$GPGLL,3002.76934,N,03121.07489,E,214340.00,A,A*EEEEEEEEEEEEEEEEEEEEEEEEEEEEEEEEEEEEEEEEEEEEEEEEEEEEEEEEEEEEEEEEEEEEEEEEEEEEEEEEEEEEEEEEEEEEEEEEEEEEEEEEEEEEEEEEEEEEEEEEEEEEEEEEEEEEEEEEEEEEEEEEEEEEEEEEEEEEEEEEEEEEEEEEEEEEEEEEEEEEEEEEEEEEEEEEEEEEEEEEEEEEEEEEEEEEEEEEEEEEEEEEEEEEEEEEEEEEEEEEEEEEEEEEEEEEEEEEEEEEEEEEEEEEEEEEEEEEEEEEEEEEEEEEEEEEEEEEEEEEEEEEEEEEEEEEEEEEEEEEEEEEEEEEEEEEEEEEEEEEEEEEEEEEEEEEEEEEEEEEEEEEEEEEEEEEEEEEEEE$GPRMC,214342.00,A,3002.76912,N,03121.07373,E,1.693,255.34,110621,,,A*6A
$GPVTG,255.34,T,,M,1.693,N,3.135,K,A*31
$GPGGA,214342.00,3002.76912,N,03121.07373,E,1,07,1.09,141.3,M,15.3,M,,*5A
$GPGSA,A,3,07,09,04,30,06,03,02,,,,,,2.16,1.09,1.86*0E
$GPGSV,3,1,11,02,17,300,09,03,28,137,34,04,37,061,23,06,34,265,34*7F
$GPGSV,3,2,11,07,76,263,40,09,58,013,37,16,18,052,,22,05,141,08*7F
$GPGSV,3,3,11,30,36,233,35,39,54,193,33,40,46,139,28*4C
$GPGLL,3002.76912,N,03121.07373,E,214342.00,A,A*EEEEEEEEEEEEEEEEEEEEEEEEEEEEEEEEEEEEEEEEEEEEEEEEEEEEEEEEEEEEEEEEEEEEEEEEEEEEEEEEEEEEEEEEEEEEEEEEEEEEEEEEEEEEEEEEEEEEEEEEEEEEEEEEEEEEEEEEEEEEEEEEEEEEEEEEEEEEEEEEEEEEEEEEEEEEEEEEEEEEEEEEEEEEEEEEEEEEEEEEEEEEEEEEEEEEEEEEEEEEEEEEEEEEEEEEEEEEEEEEEEEEEEEEEEEEEEEEEEEEEEEEEEEEEEEEEEEEEEEEEEEEEEEEEEEEEEEEEEEEEEEEEEEEEEEEEEEEEEEEEEEEEEEEEEEEEEEEEEEEEEEEEEEEEEEEEEEEEEEEEEEEEEEEEEEEEEEEE$GPRMC,214344.00,A,3002.76908,N,03121.07263,E,1.723,262.27,110621,,,A*6B
$GPVTG,262.27,T,,M,1.723,N,3.192,K,A*30
$GPGGA,214344.00,3002.76908,N,03121.07263,E,1,07,1.09,141.1,M,15.3,M,,*55
$GPGSA,A,3,07,09,04,30,06,03,02,,,,,,2.16,1.09,1.86*0E
$GPGSV,3,1,11,02,17,300,08,03,28,137,32,04,37,061,30,06,34,265,33*7D
$GPGSV,3,2,11,07,76,263,37,09,58,013,33,16,18,052,,22,05,141,*73
$GPGSV,3,3,11,30,36,233,36,39,54,193,30,40,46,139,27*43
$GPGLL,3002.76908,N,03121.07263,E,214344.00,A,A*EEEEEEEEEEEEEEEEEEEEEEEEEEEEEEEEEEEEEEEEEEEEEEEEEEEEEEEEEEEEEEEEEEEEEEEEEEEEEEEEEEEEEEEEEEEEEEEEEEEEEEEEEEEEEEEEEEEEEEEEEEEEEEEEEEEEEEEEEEEEEEEEEEEEEEEEEEEEEEEEEEEEEEEEEEEEEEEEEEEEEEEEEEEEEEEEEEEEEEEEEEEEEEEEEEEEEEEEEEEEEEEEEEEEEEEEEEEEEEEEEEEEEEEEEEEEEEEEEEEEEEEEEEEEEEEEEEEEEEEEEEEEEEEEEEEEEEEEEEEEEEEEEEEEEEEEEEEEEEEEEEEEEEEEEEEEEEEEEEEEEEEEEEEEEEEEEEEEEEEEEEEEEEEEEEEEEEEEEEEEE$GPRMC,214346.00,A,3002.76899,N,03121.07143,E,1.689,262.41,110621,,,A*60
$GPVTG,262.41,T,,M,1.689,N,3.128,K,A*30
$GPGGA,214346.00,3002.76899,N,03121.07143,E,1,06,1.44,140.8,M,15.3,M,,*5F
$GPGSA,A,3,07,09,04,30,06,03,,,,,,,3.22,1.44,2.88*0E
$GPGSV,3,1,10,02,17,300,08,03,28,137,29,04,37,061,27,06,34,265,29*7B
$GPGSV,3,2,10,07,76,263,38,09,58,013,32,16,18,052,,22,05,141,*7C
$GPGSV,3,3,10,30,36,233,37,39,54,193,27*7D
$GPGLL,3002.76899,N,03121.07143,E,214346.00,A,A*EEEEEEEEEEEEEEEEEEEEEEEEEEEEEEEEEEEEEEEEEEEEEEEEEEEEEEEEEEEEEEEEEEEEEEEEEEEEEEEEEEEEEEEEEEEEEEEEEEEEEEEEEEEEEEEEEEEEEEEEEEEEEEEEEEEEEEEEEEEEEEEEEEEEEEEEEEEEEEEEEEEEEEEEEEEEEEEEEEEEEEEEEEEEEEEEEEEEEEEEEEEEEEEEEEEEEEEEEEEEEEEEEEEEEEEEEEEEEEEEEEEEEEEEEEEEEEEEEEEEEEEEEEEEEEEEEEEEEEEEEEEEEEEEEEEEEEEEEEEEEEEEEEEEEEEEEEEEEEEEEEEEEEEEEEEEEEEEEEEEEEEEEEEEEEEEEEEEEEEEEEEEEEEEEEEEEEEEEEEEEEEEEEEEEEEEEE$GPRMC,214348.00,A,3002.76908,N,03121.07008,E,1.743,263.29,110621,,,A*61
$GPVTG,263.29,T,,M,1.743,N,3.228,K,A*3B
$GPGGA,214348.00,3002.76908,N,03121.07008,E,1,06,1.44,140.1,M,15.3,M,,*5F
$GPGSA,A,3,07,09,04,30,06,03,,,,,,,3.22,1.44,2.88*0E
$GPGSV,3,1,10,02,17,300,08,03,28,137,35,04,37,061,26,06,34,265,30*7F
$GPGSV,3,2,10,07,76,263,38,09,58,013,34,16,18,052,,22,05,141,*7A
$GPGSV,3,3,10,30,36,233,36,39,54,193,29*72
$GPGLL,3002.76908,N,03121.07008,E,214348.00,A,A*EEEEEEEEEEEEEEEEEEEEEEEEEEEEEEEEEEEEEEEEEEEEEEEEEEEEEEEEEEEEEEEEEEEEEEEEEEEEEEEEEEEEEEEEEEEEEEEEEEEEEEEEEEEEEEEEEEEEEEEEEEEEEEEEEEEEEEEEEEEEEEEEEEEEEEEEEEEEEEEEEEEEEEEEEEEEEEEEEEEEEEEEEEEEEEEEEEEEEEEEEEEEEEEEEEEEEEEEEEEEEEEEEEEEEEEEEEEEEEEEEEEEEEEEEEEEEEEEEEEEEEEEEEEEEEEEEEEEEEEEEEEEEEEEEEEEEEEEEEEEEEEEEEEEEEEEEEEEEEEEEEEEEEEEEEEEEEEEEEEEEEEEEEEEEEEEEEEEEEEEEEEEEEEEEEEEEEEEEEEEEEEEEEEEEEEEEEEE$GPRMC,214350.00,A,3002.76928,N,03121.06880,E,1.841,260.45,110621,,,A*67
$GPVTG,260.45,T,,M,1.841,N,3.410,K,A*32
$GPGGA,214350.00,3002.76928,N,03121.06880,E,1,06,1.44,139.1,M,15.3,M,,*53
$GPGSA,A,3,07,09,04,30,06,03,,,,,,,3.22,1.44,2.88*0E
$GPGSV,3,1,10,02,17,300,06,03,28,138,35,04,37,061,26,06,34,265,27*78
$GPGSV,3,2,10,07,76,263,39,09,58,013,37,16,18,052,,22,05,141,*78
$GPGSV,3,3,10,30,36,233,36,39,54,193,30*7A
$GPGLL,3002.76928,N,03121.06880,E,214350.00,A,A*EEEEEEEEEEEEEEEEEEEEEEEEEEEEEEEEEEEEEEEEEEEEEEEEEEEEEEEEEEEEEEEEEEEEEEEEEEEEEEEEEEEEEEEEEEEEEEEEEEEEEEEEEEEEEEEEEEEEEEEEEEEEEEEEEEEEEEEEEEEEEEEEEEEEEEEEEEEEEEEEEEEEEEEEEEEEEEEEEEEEEEEEEEEEEEEEEEEEEEEEEEEEEEEEEEEEEEEEEEEEEEEEEEEEEEEEEEEEEEEEEEEEEEEEEEEEEEEEEEEEEEEEEEEEEEEEEEEEEEEEEEEEEEEEEEEEEEEEEEEEEEEEEEEEEEEEEEEEEEEEEEEEEEEEEEEEEEEEEEEEEEEEEEEEEEEEEEEEEEEEEEEEEEEEEEEEEEEEEEEEEEEEEEEEEEEEEEEEE$GPRMC,214352.00,A,3002.76935,N,03121.06770,E,1.775,257.06,110621,,,A*62
$GPVTG,257.06,T,,M,1.775,N,3.287,K,A*31
$GPGGA,214352.00,3002.76935,N,03121.06770,E,1,06,1.44,138.3,M,15.3,M,,*5E
$GPGSA,A,3,07,09,04,30,06,03,,,,,,,3.22,1.44,2.88*0E
$GPGSV,3,1,10,02,17,300,,03,28,138,37,04,37,062,24,06,34,265,32*79
$GPGSV,3,2,10,07,76,263,39,09,58,013,34,16,18,052,,22,05,141,*7B
$GPGSV,3,3,10,30,36,233,36,39,54,193,31*7B
$GPGLL,3002.76935,N,03121.06770,E,214352.00,A,A*EEEEEEEEEEEEEEEEEEEEEEEEEEEEEEEEEEEEEEEEEEEEEEEEEEEEEEEEEEEEEEEEEEEEEEEEEEEEEEEEEEEEEEEEEEEEEEEEEEEEEEEEEEEEEEEEEEEEEEEEEEEEEEEEEEEEEEEEEEEEEEEEEEEEEEEEEEEEEEEEEEEEEEEEEEEEEEEEEEEEEEEEEEEEEEEEEEEEEEEEEEEEEEEEEEEEEEEEEEEEEEEEEEEEEEEEEEEEEEEEEEEEEEEEEEEEEEEEEEEEEEEEEEEEEEEEEEEEEEEEEEEEEEEEEEEEEEEEEEEEEEEEEEEEEEEEEEEEEEEEEEEEEEEEEEEEEEEEEEEEEEEEEEEEEEEEEEEEEEEEEEEEEEEEEEEEEEEEEEEEEEEEEEEEEEEEEEEEEEE$GPRMC,214354.00,A,3002.76914,N,03121.06646,E,1.722,255.11,110621,,,A*65
$GPVTG,255.11,T,,M,1.722,N,3.190,K,A*32
$GPGGA,214354.00,3002.76914,N,03121.06646,E,1,06,1.44,137.5,M,15.3,M,,*56
$GPGSA,A,3,07,09,04,30,06,03,,,,,,,3.22,1.44,2.88*0E
$GPGSV,3,1,10,02,17,300,,03,28,138,31,04,37,062,25,06,34,264,31*7C
$GPGSV,3,2,10,07,76,264,36,09,58,013,29,16,18,052,,22,05,141,10*7E
$GPGSV,3,3,10,30,36,233,37,39,54,193,28*72
$GPGLL,3002.76914,N,03121.06646,E,214354.00,A,A*EEEEEEEEEEEEEEEEEEEEEEEEEEEEEEEEEEEEEEEEEEEEEEEEEEEEEEEEEEEEEEEEEEEEEEEEEEEEEEEEEEEEEEEEEEEEEEEEEEEEEEEEEEEEEEEEEEEEEEEEEEEEEEEEEEEEEEEEEEEEEEEEEEEEEEEEEEEEEEEEEEEEEEEEEEEEEEEEEEEEEEEEEEEEEEEEEEEEEEEEEEEEEEEEEEEEEEEEEEEEEEEEEEEEEEEEEEEEEEEEEEEEEEEEEEEEEEEEEEEEEEEEEEEEEEEEEEEEEEEEEEEEEEEEEEEEEEEEEEEEEEEEEEEEEEEEEEEEEEEEEEEEEEEEEEEEEEEEEEEEEEEEEEEEEEEEEEEEEEEEEEEEEEEEEEEEEEEEEEEEEEEEEEEEEEEEEEE$GPRMC,214356.00,A,3002.76910,N,03121.06569,E,0.477,,110621,,,A*73
$GPVTG,,T,,M,0.477,N,0.883,K,A*24
$GPGGA,214356.00,3002.76910,N,03121.06569,E,1,06,1.44,137.2,M,15.3,M,,*59
$GPGSA,A,3,07,09,04,30,06,03,,,,,,,3.22,1.44,2.88*0E
$GPGSV,3,1,10,02,17,300,,03,28,138,32,04,37,062,31,06,34,264,31*7A
$GPGSV,3,2,10,07,76,264,36,09,58,014,36,16,18,052,,22,05,141,16*71
$GPGSV,3,3,10,30,36,233,26,39,54,193,28*72
$GPGLL,3002.76910,N,03121.06569,E,214356.00,A,A*EEEEEEEEEEEEEEEEEEEEEEEEEEEEEEEEEEEEEEEEEEEEEEEEEEEEEEEEEEEEEEEEEEEEEEEEEEEEEEEEEEEEEEEEEEEEEEEEEEEEEEEEEEEEEEEEEEEEEEEEEEEEEEEEEEEEEEEEEEEEEEEEEEEEEEEEEEEEEEEEEEEEEEEEEEEEEEEEEEEEEEEEEEEEEEEEEEEEEEEEEEEEEEEEEEEEEEEEEEEEEEEEEEEEEEEEEEEEEEEEEEEEEEEEEEEEEEEEEEEEEEEEEEEEEEEEEEEEEEEEEEEEEEEEEEEEEEEEEEEEEEEEEEEEEEEEEEEEEEEEEEEEEEEEEEEEEEEEEEEEEEEEEEEEEEEEEEEEEEEEEEEEEEEEEEEEEEEEEEEEEEEEEEEEEEEEEEEEEEEEEEEEEEEEEEE$GPRMC,214358.00,A,3002.76902,N,03121.06548,E,0.253,,110621,,,A*7D
$GPVTG,,T,,M,0.253,N,0.469,K,A*2C
$GPGGA,214358.00,3002.76902,N,03121.06548,E,1,06,1.44,137.3,M,15.3,M,,*56
$GPGSA,A,3,07,09,04,30,06,03,,,,,,,3.22,1.44,2.88*0E
$GPGSV,3,1,10,02,17,300,,03,28,138,34,04,37,062,20,06,34,264,34*79
$GPGSV,3,2,10,07,76,264,35,09,58,014,29,16,18,052,,22,05,141,20*79
$GPGSV,3,3,10,30,36,233,33,39,54,193,28*76
$GPGLL,3002.76902,N,03121.06548,E,214358.00,A,A*EEEEEEEEEEEEEEEEEEEEEEEEEEEEEEEEEEEEEEEEEEEEEEEEEEEEEEEEEEEEEEEEEEEEEEEEEEEEEEEEEEEEEEEEEEEEEEEEEEEEEEEEEEEEEEEEEEEEEEEEEEEEEEEEEEEEEEEEEEEEEEEEEEEEEEEEEEEEEEEEEEEEEEEEEEEEEEEEEEEEEEEEEEEEEEEEEEEEEEEEEEEEEEEEEEEEEEEEEEEEEEEEEEEEEEEEEEEEEEEEEEEEEEEEEEEEEEEEEEEEEEEEEEEEEEEEEEEEEEEEEEEEEEEEEEEEEEEEEEEEEEEEEEEEEEEEEEEEEEEEEEEEEEEEEEEEEEEEEEEEEEEEEEEEEEEEEEEEEEEEEEEEEEEEEEEEEEEEEEEEEEEEEEEEEEEEEEEEEEEEEEEEEE$GPRMC,214400.00,A,3002.76921,N,03121.06532,E,0.078,,110621,,,A*70
$GPVTG,,T,,M,0.078,N,0.144,K,A*2D
$GPGGA,214400.00,3002.76921,N,03121.06532,E,1,06,1.44,137.1,M,15.3,M,,*52
$GPGSA,A,3,07,09,04,30,06,03,,,,,,,3.22,1.44,2.88*0E
$GPGSV,3,1,10,02,17,300,,03,28,138,36,04,37,062,19,06,34,264,34*71
$GPGSV,3,2,10,07,76,264,36,09,58,014,26,16,18,052,,22,05,141,19*7F
$GPGSV,3,3,10,30,36,233,34,39,54,193,28*71
$GPGLL,3002.76921,N,03121.06532,E,214400.00,A,A*EEEEEEEEEEEEEEEEEEEEEEEEEEEEEEEEEEEEEEEEEEEEEEEEEEEEEEEEEEEEEEEEEEEEEEEEEEEEEEEEEEEEEEEEEEEEEEEEEEEEEEEEEEEEEEEEEEEEEEEEEEEEEEEEEEEEEEEEEEEEEEEEEEEEEEEEEEEEEEEEEEEEEEEEEEEEEEEEEEEEEEEEEEEEEEEEEEEEEEEEEEEEEEEEEEEEEEEEEEEEEEEEEEEEEEEEEEEEEEEEEEEEEEEEEEEEEEEEEEEEEEEEEEEEEEEEEEEEEEEEEEEEEEEEEEEEEEEEEEEEEEEEEEEEEEEEEEEEEEEEEEEEEEEEEEEEEEEEEEEEEEEEEEEEEEEEEEEEEEEEEEEEEEEEEEEEEEEEEEEEEEEEEEEEEEEEEEEEEEEEEEEEEEE$GPRMC,214402.00,A,3002.76916,N,03121.06504,E,0.874,,110621,,,A*77
$GPVTG,,T,,M,0.874,N,1.618,K,A*26
$GPGGA,214402.00,3002.76916,N,03121.06504,E,1,06,1.45,137.2,M,15.3,M,,*53
$GPGSA,A,3,07,09,04,30,06,03,,,,,,,3.22,1.45,2.88*0F
$GPGSV,3,1,10,02,17,300,,03,28,138,33,04,37,062,20,06,34,264,34*7E
$GPGSV,3,2,10,07,76,264,36,09,58,014,25,16,18,051,,22,05,141,13*75
$GPGSV,3,3,10,30,36,233,34,39,54,193,28*71
$GPGLL,3002.76916,N,03121.06504,E,214402.00,A,A*EEEEEEEEEEEEEEEEEEEEEEEEEEEEEEEEEEEEEEEEEEEEEEEEEEEEEEEEEEEEEEEEEEEEEEEEEEEEEEEEEEEEEEEEEEEEEEEEEEEEEEEEEEEEEEEEEEEEEEEEEEEEEEEEEEEEEEEEEEEEEEEEEEEEEEEEEEEEEEEEEEEEEEEEEEEEEEEEEEEEEEEEEEEEEEEEEEEEEEEEEEEEEEEEEEEEEEEEEEEEEEEEEEEEEEEEEEEEEEEEEEEEEEEEEEEEEEEEEEEEEEEEEEEEEEEEEEEEEEEEEEEEEEEEEEEEEEEEEEEEEEEEEEEEEEEEEEEEEEEEEEEEEEEEEEEEEEEEEEEEEEEEEEEEEEEEEEEEEEEEEEEEEEEEEEEEEEEEEEEEEEEEEEEEEEEEEEEEEEEEEEEEEEEEE$GPRMC,214404.00,A,3002.76896,N,03121.06400,E,1.810,258.89,110621,,,A*6E
$GPVTG,258.89,T,,M,1.810,N,3.352,K,A*3C
$GPGGA,214404.00,3002.76896,N,03121.06400,E,1,06,1.45,137.0,M,15.3,M,,*5B
$GPGSA,A,3,07,09,04,30,06,03,,,,,,,3.22,1.45,2.88*0F
$GPGSV,3,1,09,02,17,300,17,03,28,138,30,04,37,062,20,06,34,264,33*74
$GPGSV,3,2,09,07,76,264,37,09,58,014,34,16,18,051,,22,05,141,13*7C
$GPGSV,3,3,09,30,36,233,36*41
$GPGLL,3002.76896,N,03121.06400,E,214404.00,A,A*EEEEEEEEEEEEEEEEEEEEEEEEEEEEEEEEEEEEEEEEEEEEEEEEEEEEEEEEEEEEEEEEEEEEEEEEEEEEEEEEEEEEEEEEEEEEEEEEEEEEEEEEEEEEEEEEEEEEEEEEEEEEEEEEEEEEEEEEEEEEEEEEEEEEEEEEEEEEEEEEEEEEEEEEEEEEEEEEEEEEEEEEEEEEEEEEEEEEEEEEEEEEEEEEEEEEEEEEEEEEEEEEEEEEEEEEEEEEEEEEEEEEEEEEEEEEEEEEEEEEEEEEEEEEEEEEEEEEEEEEEEEEEEEEEEEEEEEEEEEEEEEEEEEEEEEEEEEEEEEEEEEEEEEEEEEEEEEEEEEEEEEEEEEEEEEEEEEEEEEEEEEEEEEEEEEEEEEEEEEEEEEEEEEEEEEEEEEEEEEEEEEEE$GPRMC,214406.00,A,3002.76870,N,03121.06291,E,1.643,,110621,,,A*72
$GPVTG,,T,,M,1.643,N,3.043,K,A*27
$GPGGA,214406.00,3002.76870,N,03121.06291,E,1,06,1.45,137.5,M,15.3,M,,*5A
$GPGSA,A,3,07,09,04,30,06,03,,,,,,,3.22,1.45,2.88*0F
$GPGSV,3,1,09,02,17,300,15,03,28,138,29,04,37,062,24,06,34,264,29*71
$GPGSV,3,2,09,07,76,264,39,09,58,014,35,16,18,051,,22,05,141,10*70
$GPGSV,3,3,09,30,36,233,35*42
$GPGLL,3002.76870,N,03121.06291,E,214406.00,A,A*EEEEEEEEEEEEEEEEEEEEEEEEEEEEEEEEEEEEEEEEEEEEEEEEEEEEEEEEEEEEEEEEEEEEEEEEEEEEEEEEEEEEEEEEEEEEEEEEEEEEEEEEEEEEEEEEEEEEEEEEEEEEEEEEEEEEEEEEEEEEEEEEEEEEEEEEEEEEEEEEEEEEEEEEEEEEEEEEEEEEEEEEEEEEEEEEEEEEEEEEEEEEEEEEEEEEEEEEEEEEEEEEEEEEEEEEEEEEEEEEEEEEEEEEEEEEEEEEEEEEEEEEEEEEEEEEEEEEEEEEEEEEEEEEEEEEEEEEEEEEEEEEEEEEEEEEEEEEEEEEEEEEEEEEEEEEEEEEEEEEEEEEEEEEEEEEEEEEEEEEEEEEEEEEEEEEEEEEEEEEEEEEEEEEEEEEEEEEEEEEEEEEEEEEEEEEEEEEEEEEEEE$GPRMC,214408.00,A,3002.76841,N,03121.06177,E,2.097,257.99,110621,,,A*67
$GPVTG,257.99,T,,M,2.097,N,3.883,K,A*31
$GPGGA,214408.00,3002.76841,N,03121.06177,E,1,07,1.09,137.4,M,15.3,M,,*55
$GPGSA,A,3,07,09,04,30,06,03,02,,,,,,2.15,1.09,1.85*0E
$GPGSV,3,1,09,02,17,300,10,03,28,138,28,04,37,062,23,06,34,264,33*79
$GPGSV,3,2,09,07,76,264,39,09,58,014,33,16,18,051,,22,04,141,10*77
$GPGSV,3,3,09,30,36,233,34*43
$GPGLL,3002.76841,N,03121.06177,E,214408.00,A,A*EEEEEEEEEEEEEEEEEEEEEEEEEEEEEEEEEEEEEEEEEEEEEEEEEEEEEEEEEEEEEEEEEEEEEEEEEEEEEEEEEEEEEEEEEEEEEEEEEEEEEEEEEEEEEEEEEEEEEEEEEEEEEEEEEEEE,,,,,,,,,,,,,,,,,,,,,,,,,,,,,,,,,,,,,,,,,,,,,,,,,,,,,,,,,,,,,,,,,,,,,,,,,,,,,,,,,,,,,,,,,,,,,,,,,,,,,,,,,,,,,,,,,,,,,,,,,,,,,,,,,,,,,,,,,,,,,,,,,,,,,,,,,,,,,,,,,,,,,,,,,,,,,,,,,,,,,,,,,,,,,,,,,,,,,,,,,,,,,,,,,,,,,,,,,,,,,,,,,,,,,,,,,,,,,,,,,,,,,,,,,,,,,,,,,,,,,,,,,,,,,,,,,$GPRMC,214410.00,A,3002.76805,N,03121.06033,E,2.287,253.75,110621,,,A*6A
$GPVTG,253.75,T,,M,2.287,N,4.236,K,A*37
$GPGGA,214410.00,3002.76805,N,03121.06033,E,1,06,1.45,137.5,M,15.3,M,,*55
$GPGSA,A,3,07,09,04,30,06,03,,,,,,,3.22,1.45,2.88*0F
$GPGSV,3,1,09,02,17,300,09,03,28,138,30,04,37,062,18,06,34,264,32*71
$GPGSV,3,2,09,07,76,264,38,09,58,014,29,16,18,051,,22,04,141,11*7C
$GPGSV,3,3,09,30,36,233,34*43
$GPGLL,3002.76805,N,03121.06033,E,214410.00,A,A*EEEEEEEEEEEEEEEEEEEEEEEEEEEEEEEEEEEEEEEEEEEEEEEEEEEEEEEEEEEEEEEEEEEEEEEEEEEEEEEEEEEEEEEEEEEEEEEEEEEEEEEEEEEEEEEEEEEEEEEEEEEEEEEEEEEEEEEEEEEEEEEEEEEEEEEEEEEEEEEEEEEEEEEEEEEEEEEEEEEEEEEEEEEEEEEEEEEEEEEEEEEEEEEEEEEEEEEEEEEEEEEEEEEEEEEEEEEEEEEEEEEEEEEEEEEEEEEEEEEEEEEEEEEEEEEEEEEEEEEEEEEEEEEEEEEEEEEEEEEEEEEEEEEEEEEEEEEEEEEEEEEEEEEEEEEEEEEEEEEEEEEEEEEEEEEEEEEEEEEEEEEEEEEEEEEEEEEEEEEEEEEEEEEEEEEEEEEEEEEEEEEEEEEEEE$GPRMC,214412.00,A,3002.76783,N,03121.05897,E,2.144,259.82,110621,,,A*62
$GPVTG,259.82,T,,M,2.144,N,3.970,K,A*37
$GPGGA,214412.00,3002.76783,N,03121.05897,E,1,07,1.09,137.3,M,15.3,M,,*5C
$GPGSA,A,3,07,09,04,30,06,03,02,,,,,,2.15,1.09,1.85*0E
$GPGSV,3,1,09,02,17,300,12,03,28,138,29,04,37,062,22,06,34,264,29*70
$GPGSV,3,2,09,07,76,264,41,09,58,014,29,16,18,051,,22,04,141,15*76
$GPGSV,3,3,09,30,36,233,36*41
$GPGLL,3002.76783,N,03121.05897,
