eb¢
   b
    ²bb¢b$GPRMC,211128.00,A,3002.80739,N,03121.07171,E,0.395,,110621,,,A*76
$GPVTG,,T,,M,0.395,N,0.732,K,A*2A
$GPGGA,211128.00,3002.80739,N,03121.07171,E,1,07,1.19,146.0,M,15.3,M,,*5A
$GPGSA,A,3,07,09,04,03,06,16,22,,,,,,2.52,1.19,2.22*04
$GPGSV,3,1,11,01,03,171,08,02,13,313,10,03,41,126,23,04,45,045,30*73
$GPGSV,3,2,11,06,36,283,26,07,65,227,26,09,57,346,29,16,22,066,08*7F
$GPGSV,3,3,11,22,17,135,31,26,07,043,,30,24,223,16*4F
$GPGLL,3002.80739,N,03121.07171,E,211128.00,A,A*EEEEEEEEEEEEEEEEEEEEEEEEEEEEEEEEEEEEEEEEEEEEEEEEEEEEEEEEEEEEEEEEEEEEEEEEEEEEEEEEEEEEEEEEEEEEEEEEEEEEEEEEEEEEEEEEEEEEEEEEEEEEEEEEEEEEEEEEEEEEEEEEEEEEEEEEEEEEEEEEEEEEEEEEEEEEEEEEEEEEEEEEEEEEEEEEEEEEEEEEEEEEEEEEEEEEEEEEEEEEEEEEEEEEEEEEEEEEEEEEEEEEEEEEEEEEEEEEEEEEEEEEEEEEEEEEEEEEEEEEEEEEEEEEEEEEEEEEEEEEEEEEEEEEEEEEEEEEEEEEEEEEEEEEEEEEEEEEEEEEEEEEEEEEEEEEEEEEEEEEEEEEEEEEEEEEEEEEEEEEEEEEEEEEEEEEEEEEEEEEEE$GPRMC,211130.00,A,3002.80735,N,03121.07181,E,0.536,,110621,,,A*73
$GPVTG,,T,,M,0.536,N,0.992,K,A*21
$GPGGA,211130.00,3002.80735,N,03121.07181,E,1,07,1.19,147.6,M,15.3,M,,*57
$GPGSA,A,3,07,09,04,03,06,16,22,,,,,,2.52,1.19,2.22*04
$GPGSV,3,1,11,01,03,171,08,02,13,313,09,03,41,126,24,04,45,045,34*78
$GPGSV,3,2,11,06,36,283,20,07,65,227,33,09,57,346,28,16,22,066,08*7C
$GPGSV,3,3,11,22,17,135,24,26,07,043,,30,24,224,21*48
$GPGLL,3002.80735,N,03121.07181,E,211130.00,A,A*EEEEEEEEEEEEEEEEEEEEEEEEEEEEEEEEEEEEEEEEEEEEEEEEEEEEEEEEEEEEEEEEEEEEEEEEEEEEEEEEEEEEEEEEEEEEEEEEEEEEEEEEEEEEEEEEEEEEEEEEEEEEEEEEEEEEEEEEEEEEEEEEEEEEEEEEEEEEEEEEEEEEEEEEEEEEEEEEEEEEEEEEEEEEEEEEEEEEEEEEEEEEEEEEEEEEEEEEEEEEEEEEEEEEEEEEEEEEEEEEEEEEEEEEEEEEEEEEEEEEEEEEEEEEEEEEEEEEEEEEEEEEEEEEEEEEEEEEEEEEEEEEEEEEEEEEEEEEEEEEEEEEEEEEEEEEEEEEEEEEEEEEEEEEEEEEEEEEEEEEEEEEEEEEEEEEEEEEEEEEEEEEEEEEEEEEEEEE$GPRMC,211132.00,A,3002.80769,N,03121.07237,E,1.215,,110621,,,A*71
$GPVTG,,T,,M,1.215,N,2.249,K,A*29
$GPGGA,211132.00,3002.80769,N,03121.07237,E,1,07,1.19,146.4,M,15.3,M,,*51
$GPGSA,A,3,07,09,04,03,06,16,22,,,,,,2.52,1.19,2.22*04
$GPGSV,3,1,11,01,03,171,,02,13,313,17,03,41,126,26,04,45,045,32*7B
$GPGSV,3,2,11,06,36,283,21,07,65,227,30,09,57,346,33,16,22,066,11*7C
$GPGSV,3,3,11,22,17,135,23,26,07,043,,30,24,224,21*4F
$GPGLL,3002.80769,N,03121.07237,E,211132.00,A,A*EEEEEEEEEEEEEEEEEEEEEEEEEEEEEEEEEEEEEEEEEEEEEEEEEEEEEEEEEEEEEEEEEEEEEEEEEEEEEEEEEEEEEEEEEEEEEEEEEEEEEEEEEEEEEEEEEEEEEEEEEEEEEEEEEEEEEEEEEEEEEEEEEEEEEEEEEEEEEEEEEEEEEEEEEEEEEEEEEEEEEEEEEEEEEEEEEEEEEEEEEEEEEEEEEEEEEEEEEEEEEEEEEEEEEEEEEEEEEEEEEEEEEEEEEEEEEEEEEEEEEEEEEEEEEEEEEEEEEEEEEEEEEEEEEEEEEEEEEEEEEEEEEEEEEEEEEEEEEEEEEEEEEEEEEEEEEEEEEEE,,,,,2222222222222222ð1111111111111111111111111111111111111111$GPRMC,21113 .,&>,,,,,,,,,,,,,1.07280,E,1.034,,110621,,,A*74
$GPVT11111111   ,,,
                   )r?ªbZ±©Éå5)A±ÉÅÅÅÍÑ)))))))))))))))))))))))))))))))))))))))))))))))))))))))))))))))))))))))))))))))))))))))))))))))))))))))))))))))))))))))))))))))))))))))))))))))))))))))))))))))))))))))))))))))))))))))))))))))))))))))))))))))))))))))))))))))))))))))))))))))))))))))))))))))))))))))))))))))))))))))))))))))))))))))))))))))))))))))))))))))))))))))))))))))))))))))))))))))))))))))))))))))))))))))))))))))))))))))))))))))))))))))))))))))))))))))))))))))))))))))))))))))))))))))))))))))))))))))))))))))))))))))))))))))))))))))))))))))))))))))))))))))))))))))))))))))))))))))))))))))))))))))))))))))))))))))))))))))))))))))))))))))))))))))))))))))))))))))))))))))))))))))))))))))))))))))))))))))))))))))))))))))))))))))))))))))))))))))))))))))))))))))))))))))))))))))))))))))))))))))))))))))))))))))))))))))))))))))))))))))))))))))))))))))))))))))))))))))))))))))))))))))))))))))))))))))))))))))))))))))))))))))))))))))))))))))))))))))))))))))))))))))))))))))))))))))))))))))))))))))))))))))))))))))))))))))))))))))))))))))))))))))))))))))))))))))))))))))))))))))))))))))))))))))))))))))))))))))))))))))))))))))))))))))))))))))))))))))))))))))))))))))))))))))))))))))))))))))))))))))))b0,30,07,65,227,32,09,57,346,31,16,22,066,12*7F
$GPGSV,3,3,11,22,17,135,28,26,07,043,,30,24,224,16*40
$GPGLL,3002.80751,N,03121.07313,E,211135.00,A,A*EEEEEEEEEEEEEEEEEEEEEEEEEEEEEEEEEEEEEEEEEEEEEEEEEEEEEEEEEEEEEEEEEEEEEEEEEEEEEEEEEEEEEEEEEEEEEEEEEEEEEEEEEEEEEEEEEEEEEEEEEEEEEEEEEEEEEEEEEEEEEEEEEEEEEEEEEEEEEEEEEEEEEEEEEEEEEEEEEEEEEEEEEEEEEEEEEEEEEEEEEEEEEEEEEEEEEEEEEEEEEEEEEEEEEEEEEEEEEEEEEEEEEEEEEEEEEEEEEEEEEEEEEEEEEEEEEEEEEEEEEEEEEEEEEEEEEEEEEEEEEEEEEEEEEEEEEEEEEEEEEEEEEEEEEEEEEEEEEEEEEEEEEEEEEEEEEEEEEEEEEEEEEEEEEEEEEEEEEEEEEEEEEEEEEEEEEEEEEEEEEEE$GPRMC,211137.00,A,3002.80715,N,03121.07420,E,1.448,,110621,,,A*71
$GPVTG,,T,,M,1.448,N,2.681,K,A*27
$GPGGA,211137.00,3002.80715,N,03121.07420,E,1,07,1.19,146.5,M,15.3,M,,*5E
$GPGSA,A,3,07,09,04,03,06,16,22,,,,,,2.52,1.19,2.22*04
$GPGSV,3,1,11,01,03,171,,02,13,313,17,03,41,126,35,04,45,045,31*7A
$GPGSV,3,2,11,06,36,283,25,07,65,227,25,09,57,346,31,16,22,066,11*7E
$GPGSV,3,3,11,22,17,135,32,26,07,043,,30,24,224,19*44
$GPGLL,3002.80715,N,03121.07420,E,211137.00,A,A*EEEEEEEEEEEEEEEEEEEEEEEEEEEEEEEEEEEEEEEEEEEEEEEEEEEEEEEEEEEEEEEEEEEEEEEEEEEEEEEEEEEEEEEEEEEEEEEEEEEEEEEEEEEEEEEEEEEEEEEEEEEEEEEEEEEEEEEEEEEEEEEEEEEEEEEEEEEEEEEEEEEEEEEEEEEEEEEEEEEEEEEEEEEEEEEEEEEEEEEEEEEEEEEEEEEEEEEEEEEEEEEEEEEEEEEEEEEEEEEEEEEEEEEEEEEEEEEEEEEEEEEEEEEEEEEEEEEEEEEEEEEEEEEEEEEEEEEEEEEEEEEEEEEEEEEEEEEEEEEEEEEEEEEEEEEEEEEEEEEEEEEEEEEEEEEEEEEEEEEEEEEEEEEEEEEEEEEEEEEEEEEEEEEEEEEEEEEEEEEEE$GPRMC,211139.00,A,3002.80680,N,03121.07496,E,1.614,98.38,110621,,,A*50
$GPVTG,98.38,T,,M,1.614,N,2.990,K,A*07
$GPGGA,211139.00,3002.80680,N,03121.07496,E,1,07,1.19,145.6,M,15.3,M,,*50
$GPGSA,A,3,07,09,04,03,06,16,22,,,,,,2.52,1.19,2.22*04
$GPGSV,3,1,11,01,03,171,15,02,13,313,16,03,41,126,35,04,45,045,28*77
$GPGSV,3,2,11,06,36,283,31,07,65,227,30,09,57,346,31,16,22,066,09*76
$GPGSV,3,3,11,22,17,135,31,26,07,043,,30,24,224,22*4F
$GPGLL,3002.80680,N,03121.07496,E,211139.00,A,A*EEEEEEEEEEEEEEEEEEEEEEEEEEEEEEEEEEEEEEEEEEEEEEEEEEEEEEEEEEEEEEEEEEEEEEEEEEEEEEEEEEEEEEEEEEEEEEEEEEEEEEEEEEEEEEEEEEEEEEEEEEEEEEEEEEEEEEEEEEEEEEEEEEEEEEEEEEEEEEEEEEEEEEEEEEEEEEEEEEEEEEEEEEEEEEEEEEEEEEEEEEEEEEEEEEEEEEEEEEEEEEEEEEEEEEEEEEEEEEEEEEEEEEEEEEEEEEEEEEEEEEEEEEEEEEEEEEEEEEEEEEEEEEEEEEEEEEEEEEEEEEEEEEEEEEEEEEEEEEEEEEEEEEEEEEEEEEEEEEEEEEEEEEEEEEEEEEEEEEEEEEEEEEEEEEEEEEEEEEEEEEEEEEEEEEEEEE$GPRMC,211141.00,A,3002.80621,N,03121.07581,E,1.581,,110621,,,A*78
$GPVTG,,T,,M,1.581,N,2.928,K,A*2F
$GPGGA,211141.00,3002.80621,N,03121.07581,E,1,07,1.19,146.2,M,15.3,M,,*54
$GPGSA,A,3,07,09,04,03,06,16,22,,,,,,2.52,1.19,2.22*04
$GPGSV,3,1,11,01,03,171,10,02,13,313,16,03,41,126,32,04,45,045,28*75
$GPGSV,3,2,11,06,36,283,26,07,65,227,27,09,57,346,26,16,22,066,09*70
$GPGSV,3,3,11,22,17,135,35,26,07,043,,30,24,224,19*43
$GPGLL,3002.80621,N,03121.07581,E,211141.00,A,A*EEEEEEEEEEEEEEEEEEEEEEEEEEEEEEEEEEEEEEEEEEEEEEEEEEEEEEEEEEEEEEEEEEEEEEEEEEEEEEEEEEEEEEEEEEEEEEEEEEEEEEEEEEEEEEEEEEEEEEEEEEEEEEEEEEEEEEEEEEEEEEEEEEEEEEEEEEEEEEEEEEEEEEEEEEEEEEEEEEEEEEEEEEEEEEEEEEEEEEEEEEEEEEEEEEEEEEEEEEEEEEEEEEEEEEEEEEEEEEEEEEEEEEEEEEEEEEEEEEEEEEEEEEEEEEEEEEEEEEEEEEEEEEEEEEEEEEEEEEEEEEEEEEEEEEEEEEEEEEEEEEEEEEEEEEEEEEEEEEEEEEEEEEEEEEEEEEEEEEEEEEEEEEEEEEEEEEEEEEEEEEEEEEEEEEEEEEEEEEEE$GPRMC,211143.00,A,3002.80547,N,03121.07601,E,1.342,,110621,,,A*7B
$GPVTG,,T,,M,1.342,N,2.486,K,A*2F
$GPGGA,211143.00,3002.80547,N,03121.07601,E,1,07,1.19,145.5,M,15.3,M,,*5A
$GPGSA,A,3,07,09,04,03,06,16,22,,,,,,2.52,1.19,2.22*04
$GPGSV,3,1,11,01,03,171,10,02,13,313,17,03,41,126,35,04,45,045,28*73
$GPGSV,3,2,11,06,36,283,25,07,65,227,30,09,57,346,27,16,22,066,09*74
$GPGSV,3,3,11,22,17,135,29,26,07,043,,30,24,224,22*46
$GPGLL,3002.80547,N,03121.07601,E,211143.00,A,A*EEEEEEEEEEEEEEEEEEEEEEEEEEEEEEEEEEEEEEEEEEEEEEEEEEEEEEEEEEEEEEEEEEEEEEEEEEEEEEEEEEEEEEEEEEEEEEEEEEEEEEEEEEEEEEEEEEEEEEEEEEEEEEEEEEEEEEEEEEEEEEEEEEEEEEEEEEEEEEEEEEEEEEEEEEEEEEEEEEEEEEEEEEEEEEEEEEEEEEEEEEEEEEEEEEEEEEEEEEEEEEEEEEEEEEEEEEEEEEEEEEEEEEEEEEEEEEEEEEEEEEEEEEEEEEEEEEEEEEEEEEEEEEEEEEEEEEEEEEEEEEEEEEEEEEEEEEEEEEEEEEEEEEEEEEEEEEEEEEEEEEEEEEEEEEEEEEEEEEEEEEEEEEEEEEEEEEEEEEEEEEEEEEEEEEEEEEEEE$GPRMC,211145.00,A,3002.80474,N,03121.07637,E,1.475,,110621,,,A*7A
$GPVTG,,T,,M,1.475,N,2.732,K,A*20
$GPGGA,211145.00,3002.80474,N,03121.07637,E,1,07,1.19,145.8,M,15.3,M,,*55
$GPGSA,A,3,07,09,04,03,06,16,22,,,,,,2.52,1.19,2.22*04
$GPGSV,3,1,11,01,02,171,11,02,13,312,17,03,41,126,26,04,45,045,27*7F
$GPGSV,3,2,11,06,36,283,26,07,65,227,30,09,57,346,28,16,22,066,16*76
$GPGSV,3,3,11,22,17,135,36,26,07,043,,30,24,224,22*48
$GPGLL,3002.80474,N,03121.07637,E,211145.00,A,A*EEEEEEEEEEEEEEEEEEEEEEEEEEEEEEEEEEEEEEEEEEEEEEEEEEEEEEEEEEEEEEEEEEEEEEEEEEEEEEEEEEEEEEEEEEEEEEEEEEEEEEEEEEEEEEEEEEEEEEEEEEEEEEEEEEEEEEEEEEEEEEEEEEEEEEEEEEEEEEEEEEEEEEEEEEEEEEEEEEEEEEEEEEEEEEEEEEEEEEEEEEEEEEEEEEEEEEEEEEEEEEEEEEEEEEEEEEEEEEEEEEEEEEEEEEEEEEEEEEEEEEEEEEEEEEEEEEEEEEEEEEEEEEEEEEEEEEEEEEEEEEEEEEEEEEEEEEEEEEEEEEEEEEEEEEEEEEEEEEEEEEEEEEEEEEEEEEEEEEEEEEEEEEEEEEEEEEEEEEEEEEEEEEEEEE$GPRMC,211147.00,A,3002.80391,N,03121.07659,E,1.028,,110621,,,A*70
$GPVTG,,T,,M,1.028,N,1.903,K,A*23
$GPGGA,211147.00,3002.80391,N,03121.07659,E,1,07,1.19,145.5,M,15.3,M,,*5E
$GPGSA,A,3,07,09,04,03,06,16,22,,,,,,2.52,1.19,2.22*04
$GPGSV,3,1,11,01,02,171,11,02,13,312,15,03,40,127,34,04,45,045,27*7E
$GPGSV,3,2,11,06,36,283,24,07,65,227,30,09,57,346,27,16,22,066,16*7B
$GPGSV,3,3,11,22,17,135,33,26,07,043,,30,24,224,26*49
$GPGLL,3002.80391,N,03121.07659,E,211147.00,A,A*EEEEEEEEEEEEEEEEEEEEEEEEEEEEEEEEEEEEEEEEEEEEEEEEEEEEEEEEEEEEEEEEEEEEEEEEEEEEEEEEEEEEEEEEEEEEEEEEEEEEEEEEEEEEEEEEEEEEEEEEEEEEEEEEEEEEEEEEEEEEEEEEEEEEEEEEEEEEEEEEEEEEEEEEEEEEEEEEEEEEEEEEEEEEEEEEEEEEEEEEEEEEEEEEEEEEEEEEEEEEEEEEEEEEEEEEEEEEEEEEEEEEEEEEEEEEEEEEEEEEEEEEEEEEEEEEEEEEEEEEEEEEEEEEEEEEEEEEEEEEEEEEEEEEEEEEEEEEEEEEEEEEEEEEEEEEEEEEEEEEEEEEEEEEEEEEEEEEEEEEEEEEEEEEEEEEEEEEEEEEEEEEEEEE$GPRMC,211149.00,A,3002.80309,N,03121.07672,E,1.648,,110621,,,A*76
$GPVTG,,T,,M,1.648,N,3.052,K,A*2C
$GPGGA,211149.00,3002.80309,N,03121.07672,E,1,07,1.19,145.3,M,15.3,M,,*5E
$GPGSA,A,3,07,09,04,03,06,16,22,,,,,,2.52,1.19,2.22*04
$GPGSV,3,1,11,01,02,171,11,02,13,312,14,03,40,127,34,04,45,045,26*7E
$GPGSV,3,2,11,06,36,283,24,07,65,227,30,09,57,346,25,16,22,066,15*7A
$GPGSV,3,3,11,22,17,135,36,26,07,043,,30,24,224,26*4C
$GPGLL,3002.80309,N,03121.07672,E,211149.00,A,A*EEEEEEEEEEEEEEEEEEEEEEEEEEEEEEEEEEEEEEEEEEEEEEEEEEEEEEEEEEEEEEEEEEEEEEEEEEEEEEEEEEEEEEEEEEEEEEEEEEEEEEEEEEEEEEEEEEEEEEEEEEEEEEEEEEEEEEEEEEEEEEEEEEEEEEEEEEEEEEEEEEEEEEEEEEEEEEEEEEEEEEEEEEEEEEEEEEEEEEEEEEEEEEEEEEEEEEEEEEEEEEEEEEEEEEEEEEEEEEEEEEEEEEEEEEEEEEEEEEEEEEEEEEEEEEEEEEEEEEEEEEEEEEEEEEEEEEEEEEEEEEEEEEEEEEEEEEEEEEEEEEEEEEEEEEEEEEEEEEEEEEEEEEEEEEEEEEEEEEEEEEEEEEEEEEEEEEEEEEEEEEEEEEE$GPRMC,211151.00,A,3002.80218,N,03121.07712,E,1.608,,110621,,,A*7D
$GPVTG,,T,,M,1.608,N,2.979,K,A*29
$GPGGA,211151.00,3002.80218,N,03121.07712,E,1,07,1.19,145.6,M,15.3,M,,*54
$GPGSA,A,3,07,09,04,03,06,16,22,,,,,,2.51,1.19,2.22*07
$GPGSV,3,1,11,01,02,171,14,02,13,312,15,03,40,127,37,04,45,045,23*7C
$GPGSV,3,2,11,06,36,283,26,07,65,228,28,09,58,346,22,16,22,066,09*7B
$GPGSV,3,3,11,22,17,135,30,26,07,043,,30,24,224,25*49
$GPGLL,3002.80218,N,03121.07712,E,211151.00,A,A*EEEEEEEEEEEEEEEEEEEEEEEEEEEEEEEEEEEEEEEEEEEEEEEEEEEEEEEEEEEEEEEEEEEEEEEEEEEEEEEEEEEEEEEEEEEEEEEEEEEEEEEEEEEEEEEEEEEEEEEEEEEEEEEEEEEEEEEEEEEEEEEEEEEEEEEEEEEEEEEEEEEEEEEEEEEEEEEEEEEEEEEEEEEEEEEEEEEEEEEEEEEEEEEEEEEEEEEEEEEEEEEEEEEEEEEEEEEEEEEEEEEEEEEEEEEEEEEEEEEEEEEEEEEEEEEEEEEEEEEEEEEEEEEEEEEEEEEEEEEEEEEEEEEEEEEEEEEEEEEEEEEEEEEEEEEEEEEEEEEEEEEEEEEEEEEEEEEEEEEEEEEEEEEEEEEEEEEEEEEEEEEEEEEEEE$GPRMC,211153.00,A,3002.80138,N,03121.07755,E,1.292,,110621,,,A*7A
$GPVTG,,T,,M,1.292,N,2.393,K,A*20
$GPGGA,211153.00,3002.80138,N,03121.07755,E,1,07,1.19,146.0,M,15.3,M,,*51
$GPGSA,A,3,07,09,04,03,06,16,22,,,,,,2.51,1.19,2.22*07
$GPGSV,3,1,11,01,02,171,14,02,13,312,12,03,40,127,34,04,45,045,26*7D
$GPGSV,3,2,11,06,36,283,31,07,65,228,28,09,58,346,25,16,22,066,09*7A
$GPGSV,3,3,11,22,17,135,34,26,07,043,,30,24,224,22*4A
$GPGLL,3002.80138,N,03121.07755,E,211153.00,A,A*EEEEEEEEEEEEEEEEEEEEEEEEEEEEEEEEEEEEEEEEEEEEEEEEEEEEEEEEEEEEEEEEEEEEEEEEEEEEEEEEEEEEEEEEEEEEEEEEEEEEEEEEEEEEEEEEEEEEEEEEEEEEEEEEEEEEEEEEEEEEEEEEEEEEEEEEEEEEEEEEEEEEEEEEEEEEEEEEEEEEEEEEEEEEEEEEEEEEEEEEEEEEEEEEEEEEEEEEEEEEEEEEEEEEEEEEEEEEEEEEEEEEEEEEEEEEEEEEEEEEEEEEEEEEEEEEEEEEEEEEEEEEEEEEEEEEEEEEEEEEEEEEEEEEEEEEEEEEEEEEEEEEEEEEEEEEEEEEEEEEEEEEEEEEEEEEEEEEEEEEEEEEEEEEEEEEEEEEEEEEEEEEEEEE$GPRMC,211155.00,A,3002.80085,N,03121.07773,E,1.114,,110621,,,A*72
$GPVTG,,T,,M,1.114,N,2.063,K,A*21
$GPGGA,211155.00,3002.80085,N,03121.07773,E,1,07,1.19,145.2,M,15.3,M,,*55
$GPGSA,A,3,07,09,04,03,06,16,22,,,,,,2.51,1.19,2.22*07
$GPGSV,3,1,11,01,02,171,14,02,13,312,12,03,40,127,35,04,45,045,25*7F
$GPGSV,3,2,11,06,36,283,30,07,65,228,28,09,58,346,25,16,22,066,09*7B
$GPGSV,3,3,11,22,17,135,33,26,07,043,,30,24,224,20*4F
$GPGLL,3002.80085,N,03121.07773,E,211155.00,A,A*EEEEEEEEEEEEEEEEEEEEEEEEEEEEEEEEEEEEEEEEEEEEEEEEEEEEEEEEEEEEEEEEEEEEEEEEEEEEEEEEEEEEEEEEEEEEEEEEEEEEEEEEEEEEEEEEEEEEEEEEEEEEEEEEEEEEEEEEEEEEEEEEEEEEEEEEEEEEEEEEEEEEEEEEEEEEEEEEEEEEEEEEEEEEEEEEEEEEEEEEEEEEEEEEEEEEEEEEEEEEEEEEEEEEEEEEEEEEEEEEEEEEEEEEEEEEEEEEEEEEEEEEEEEEEEEEEEEEEEEEEEEEEEEEEEEEEEEEEEEEEEEEEEEEEEEEEEEEEEEEEEEEEEEEEEEEEEEEEEEEEEEEEEEEEEEEEEEEEEEEEEEEEEEEEEEEEEEEEEEEEEEE$GPRMC,211157.00,A,3002.79988,N,03121.07789,E,1.422,,110621,,,A*77
$GPVTG,,T,,M,1.422,N,2.634,K,A*25
$GPGGA,211157.00,3002.79988,N,03121.07789,E,1,07,1.19,145.2,M,15.3,M,,*50
$GPGSA,A,3,07,09,04,03,06,16,22,,,,,,2.51,1.19,2.22*07
$GPGSV,3,1,11,01,02,171,11,02,13,312,18,03,40,127,36,04,45,045,26*70
$GPGSV,3,2,11,06,36,283,22,07,65,228,29,09,58,346,27,16,22,066,23*73
$GPGSV,3,3,11,22,17,135,34,26,07,043,,30,24,224,19*42
$GPGLL,3002.79988,N,03121.07789,E,211157.00,A,A*EEEEEEEEEEEEEEEEEEEEEEEEEEEEEEEEEEEEEEEEEEEEEEEEEEEEEEEEEEEEEEEEEEEEEEEEEEEEEEEEEEEEEEEEEEEEEEEEEEEEEEEEEEEEEEEEEEEEEEEEEEEEEEEEEEEEEEEEEEEEEEEEEEEEEEEEEEEEEEEEEEEEEEEEEEEEEEEEEEEEEEEEEEEEEEEEEEEEEEEEEEEEEEEEEEEEEEEEEEEEEEEEEEEEEEEEEEEEEEEEEEEEEEEEEEEEEEEEEEEEEEEEEEEEEEEEEEEEEEEEEEEEEEEEEEEEEEEEEEEEEEEEEEEEEEEEEEEEEEEEEEEEEEEEEEEEEEEEEEEEEEEEEEEEEEEEEEEEEEEEEEEEEEEEEEEEEEEEEEEEEEEEEEEEEEE$GPRMC,211159.00,A,3002.79886,N,03121.07781,E,1.642,159.55,110621,,,A*69
$GPVTG,159.55,T,,M,1.642,N,3.042,K,A*34
$GPGGA,211159.00,3002.79886,N,03121.07781,E,1,07,1.19,145.0,M,15.3,M,,*5B
$GPGSA,A,3,07,09,04,03,06,16,22,,,,,,2.51,1.19,2.22*07
$GPGSV,3,1,11,01,02,171,11,02,13,312,19,03,40,127,33,04,45,045,26*74
$GPGSV,3,2,11,06,36,283,22,07,65,228,29,09,58,346,27,16,22,066,24*74
$GPGSV,3,3,11,22,17,135,33,26,07,043,,30,24,224,19*45
$GPGLL,3002.79886,N,03121.07781,E,211159.00,A,A*EEEEEEEEEEEEEEEEEEEEEEEEEEEEEEEEEEEEEEEEEEEEEEEEEEEEEEEEEEEEEEEEEEEEEEEEEEEEEEEEEEEEEEEEEEEEEEEEEEEEEEEEEEEEEEEEEEEEEEEEEEEEEEEEEEEEEEEEEEEEEEEEEEEEEEEEEEEEEEEEEEEEEEEEEEEEEEEEEEEEEEEEEEEEEEEEEEEEEEEEEEEEEEEEEEEEEEEEEEEEEEEEEEEEEEEEEEEEEEEEEEEEEEEEEEEEEEEEEEEEEEEEEEEEEEEEEEEEEEEEEEEEEEEEEEEEEEEEEEEEEEEEEEEEEEEEEEEEEEEEEEEEEEEEEEEEEEEEEEEEEEEEEEEEEEEEEEEEEEEEEEEEEEEEEEEE$GPRMC,211201.00,A,3002.79783,N,03121.07784,E,1.490,,110621,,,A*76
$GPVTG,,T,,M,1.490,N,2.760,K,A*2C
$GPGGA,211201.00,3002.79783,N,03121.07784,E,1,07,1.19,145.0,M,15.3,M,,*5A
$GPGSA,A,3,07,09,04,03,06,16,22,,,,,,2.51,1.19,2.22*07
$GPGSV,3,1,11,01,02,171,,02,13,312,20,03,40,127,32,04,45,045,27*7E
$GPGSV,3,2,11,06,36,283,23,07,65,228,27,09,58,346,26,16,22,066,24*7A
$GPGSV,3,3,11,22,17,135,34,26,07,043,,30,24,224,20*48
$GPGLL,3002.79783,N,03121.07784,E,211201.00,A,A*EEEEEEEEEEEEEEEEEEEEEEEEEEEEEEEEEEEEEEEEEEEEEEEEEEEEEEEEEEEEEEEEEEEEEEEEEEEEEEEEEEEEEEEEEEEEEEEEEEEEEEEEEEEEEEEEEEEEEEEEEEEEEEEEEEEEEEEEEEEEEEEEEEEEEEEEEEEEEEEEEEEEEEEEEEEEEEEEEEEEEEEEEEEEEEEEEEEEEEEEEEEEEEEEEEEEEEEEEEEEEEEEEEEEEEEEEEEEEEEEEEEEEEEEEEEEEEEEEEEEEEEEEEEEEEEEEEEEEEEEEEEEEEEEEEEEEEEEEEEEEEEEEEEEEEEEEEEEEEEEEEEEEEEEEEEEEEEEEEEEEEEEEEEEEEEEEEEEEEEEEEEEEEEEEEEEEEEEEEEEEEEEEEEEEE$GPRMC,211203.00,A,3002.79687,N,03121.07805,E,1.789,,110621,,,A*7C
$GPVTG,,T,,M,1.789,N,3.313,K,A*26
$GPGGA,211203.00,3002.79687,N,03121.07805,E,1,07,1.19,145.0,M,15.3,M,,*5B
$GPGSA,A,3,07,09,04,03,06,16,22,,,,,,2.51,1.19,2.21*04
$GPGSV,3,1,11,01,02,171,07,02,13,312,20,03,40,127,32,04,45,045,27*79
$GPGSV,3,2,11,06,36,283,23,07,65,228,27,09,58,346,26,16,22,066,28*76
$GPGSV,3,3,11,22,16,135,30,26,07,043,,30,24,224,21*4C
$GPGLL,3002.79687,N,03121.07805,E,211203.00,A,A*EEEEEEEEEEEEEEEEEEEEEEEEEEEEEEEEEEEEEEEEEEEEEEEEEEEEEEEEEEEEEEEEEEEEEEEEEEEEEEEEEEEEEEEEEEEEEEEEEEEEEEEEEEEEEEEEEEEEEEEEEEEEEEEEEEEEEEEEEEEEEEEEEEEEEEEEEEEEEEEEEEEEEEEEEEEEEEEEEEEEEEEEEEEEEEEEEEEEEEEEEEEEEEEEEEEEEEEEEEEEEEEEEEEEEEEEEEEEEEEEEEEEEEEEEEEEEEEEEEEEEEEEEEEEEEEEEEEEEEEEEEEEEEEEEEEEEEEEEEEEEEEEEEEEEEEEEEEEEEEEEEEEEEEEEEEEEEEEEEEEEEEEEEEEEEEEEEEEEEEEEEEEEEEEEEEEEEEEEEEEEEEEEEEEEEE$GPRMC,211205.00,A,3002.79609,N,03121.07834,E,1.718,,110621,,,A*76
$GPVTG,,T,,M,1.718,N,3.182,K,A*24
$GPGGA,211205.00,3002.79609,N,03121.07834,E,1,07,1.19,144.6,M,15.3,M,,*5E
$GPGSA,A,3,07,09,04,03,06,16,22,,,,,,2.51,1.19,2.21*04
$GPGSV,3,1,11,01,02,171,15,02,13,312,18,03,40,127,31,04,45,045,26*73
$GPGSV,3,2,11,06,36,283,21,07,65,228,27,09,58,346,24,16,22,066,21*7F
$GPGSV,3,3,11,22,16,135,33,26,07,043,,30,24,224,22*4C
$GPGLL,3002.79609,N,03121.07834,E,211205.00,A,A*EEEEEEEEEEEEEEEEEEEEEEEEEEEEEEEEEEEEEEEEEEEEEEEEEEEEEEEEEEEEEEEEEEEEEEEEEEEEEEEEEEEEEEEEEEEEEEEEEEEEEEEEEEEEEEEEEEEEEEEEEEEEEEEEEEEEEEEEEEEEEEEEEEEEEEEEEEEEEEEEEEEEEEEEEEEEEEEEEEEEEEEEEEEEEEEEEEEEEEEEEEEEEEEEEEEEEEEEEEEEEEEEEEEEEEEEEEEEEEEEEEEEEEEEEEEEEEEEEEEEEEEEEEEEEEEEEEEEEEEEEEEEEEEEEEEEEEEEEEEEEEEEEEEEEEEEEEEEEEEEEEEEEEEEEEEEEEEEEEEEEEEEEEEEEEEEEEEEEEEEEEEEEEEEEEEEEEEEEEEEEEEEE$GPRMC,211207.00,A,3002.79522,N,03121.07852,E,1.436,,110621,,,A*71
$GPVTG,,T,,M,1.436,N,2.659,K,A*2B
$GPGGA,211207.00,3002.79522,N,03121.07852,E,1,07,1.19,144.3,M,15.3,M,,*53
$GPGSA,A,3,07,09,04,03,06,16,22,,,,,,2.51,1.19,2.21*04
$GPGSV,3,1,11,01,02,171,12,02,13,312,19,03,40,127,31,04,45,045,24*77
$GPGSV,3,2,11,06,36,283,20,07,65,228,27,09,58,346,23,16,22,066,15*7E
$GPGSV,3,3,11,22,16,135,33,26,07,042,,30,24,224,21*4E
$GPGLL,3002.79522,N,03121.07852,E,211207.00,A,A*EEEEEEEEEEEEEEEEEEEEEEEEEEEEEEEEEEEEEEEEEEEEEEEEEEEEEEEEEEEEEEEEEEEEEEEEEEEEEEEEEEEEEEEEEEEEEEEEEEEEEEEEEEEEEEEEEEEEEEEEEEEEEEEEEEEEEEEEEEEEEEEEEEEEEEEEEEEEEEEEEEEEEEEEEEEEEEEEEEEEEEEEEEEEEEEEEEEEEEEEEEEEEEEEEEEEEEEEEEEEEEEEEEEEEEEEEEEEEEEEEEEEEEEEEEEEEEEEEEEEEEEEEEEEEEEEEEEEEEEEEEEEEEEEEEEEEEEEEEEEEEEEEEEEEEEEEEEEEEEEEEEEEEEEEEEEEEEEEEEEEEEEEEEEEEEEEEEEEEEEEEEEEEEEEEEEEEEEEEEEEEEEEEEEEE$GPRMC,211209.00,A,3002.79423,N,03121.07853,E,1.870,,110621,,,A*70
$GPVTG,,T,,M,1.870,N,3.463,K,A*2F
$GPGGA,211209.00,3002.79423,N,03121.07853,E,1,07,1.19,143.6,M,15.3,M,,*5E
$GPGSA,A,3,07,09,04,03,06,16,22,,,,,,2.51,1.19,2.21*04
$GPGSV,3,1,11,01,02,171,12,02,13,312,18,03,40,127,31,04,45,045,23*71
$GPGSV,3,2,11,06,36,283,21,07,65,228,28,09,58,346,24,16,22,066,14*76
$GPGSV,3,3,11,22,16,135,28,26,07,042,,30,24,224,20*45
$GPGLL,3002.79423,N,03121.07853,E,211209.00,A,A*EEEEEEEEEEEEEEEEEEEEEEEEEEEEEEEEEEEEEEEEEEEEEEEEEEEEEEEEEEEEEEEEEEEEEEEEEEEEEEEEEEEEEEEEEEEEEEEEEEEEEEEEEEEEEEEEEEEEEEEEEEEEEEEEEEEEEEEEEEEEEEEEEEEEEEEEEEEEEEEEEEEEEEEEEEEEEEEEEEEEEEEEEEEEEEEEEEEEEEEEEEEEEEEEEEEEEEEEEEEEEEEEEEEEEEEEEEEEEEEEEEEEEEEEEEEEEEEEEEEEEEEEEEEEEEEEEEEEEEEEEEEEEEEEEEEEEEEEEEEEEEEEEEEEEEEEEEEEEEEEEEEEEEEEEEEEEEEEEEEEEEEEEEEEEEEEEEEEEEEEEEEEEEEEEEEEEEEEEEEEEEEEEE$GPRMC,211211.00,A,3002.79361,N,03121.07898,E,1.781,,110621,,,A*7E
$GPVTG,,T,,M,1.781,N,3.298,K,A*2C
$GPGGA,211211.00,3002.79361,N,03121.07898,E,1,07,1.19,143.5,M,15.3,M,,*52
$GPGSA,A,3,07,09,04,03,06,16,22,,,,,,2.51,1.19,2.21*04
$GPGSV,3,1,11,01,02,171,13,02,13,312,21,03,40,127,27,04,45,045,28*76
$GPGSV,3,2,11,06,36,283,19,07,65,228,30,09,58,346,24,16,22,066,15*75
$GPGSV,3,3,11,22,16,135,26,26,07,042,,30,24,224,19*41
$GPGLL,3002.79361,N,03121.07898,E,211211.00,A,A*EEEEEEEEEEEEEEEEEEEEEEEEEEEEEEEEEEEEEEEEEEEEEEEEEEEEEEEEEEEEEEEEEEEEEEEEEEEEEEEEEEEEEEEEEEEEEEEEEEEEEEEEEEEEEEEEEEEEEEEEEEEEEEEEEEEEEEEEEEEEEEEEEEEEEEEEEEEEEEEEEEEEEEEEEEEEEEEEEEEEEEEEEEEEEEEEEEEEEEEEEEEEEEEEEEEEEEEEEEEEEEEEEEEEEEEEEEEEEEEEEEEEEEEEEEEEEEEEEEEEEEEEEEEEEEEEEEEEEEEEEEEEEEEEEEEEEEEEEEEEEEEEEEEEEEEEEEEEEEEEEEEEEEEEEEEEEEEEEEEEEEEEEEEEEEEEEEEEEEEEEEEEEEEEEEEEEEEEEEEEEEEEEEEEEEE$GPRMC,211213.00,A,3002.79294,N,03121.07935,E,1.393,160.15,110621,,,A*6B
$GPVTG,160.15,T,,M,1.393,N,2.580,K,A*39
$GPGGA,211213.00,3002.79294,N,03121.07935,E,1,07,1.19,143.3,M,15.3,M,,*5B
$GPGSA,A,3,07,09,04,03,06,16,22,,,,,,2.51,1.19,2.21*04
$GPGSV,3,1,11,01,02,171,10,02,13,312,21,03,40,127,32,04,45,045,27*7E
$GPGSV,3,2,11,06,36,283,18,07,65,228,33,09,58,346,23,16,22,066,16*73
$GPGSV,3,3,11,22,16,135,26,26,07,042,,30,24,224,18*40
$GPGLL,3002.79294,N,03121.07935,E,211213.00,A,A*EEEEEEEEEEEEEEEEEEEEEEEEEEEEEEEEEEEEEEEEEEEEEEEEEEEEEEEEEEEEEEEEEEEEEEEEEEEEEEEEEEEEEEEEEEEEEEEEEEEEEEEEEEEEEEEEEEEEEEEEEEEEEEEEEEEEEEEEEEEEEEEEEEEEEEEEEEEEEEEEEEEEEEEEEEEEEEEEEEEEEEEEEEEEEEEEEEEEEEEEEEEEEEEEEEEEEEEEEEEEEEEEEEEEEEEEEEEEEEEEEEEEEEEEEEEEEEEEEEEEEEEEEEEEEEEEEEEEEEEEEEEEEEEEEEEEEEEEEEEEEEEEEEEEEEEEEEEEEEEEEEEEEEEEEEEEEEEEEEEEEEEEEEEEEEEEEEEEEEEEEEEEEEEEEEEEEEE$GPRMC,211215.00,A,3002.79214,N,03121.07972,E,1.376,165.26,110621,,,A*68
$GPVTG,165.26,T,,M,1.376,N,2.548,K,A*33
$GPGGA,211215.00,3002.79214,N,03121.07972,E,1,07,1.19,143.2,M,15.3,M,,*57
$GPGSA,A,3,07,09,04,03,06,16,22,,,,,,2.51,1.19,2.21*04
$GPGSV,3,1,11,01,02,171,14,02,13,312,18,03,40,127,35,04,45,045,28*78
$GPGSV,3,2,11,06,36,283,21,07,65,228,32,09,58,346,25,16,22,066,15*7D
$GPGSV,3,3,11,22,16,135,26,26,07,042,,30,24,224,19*41
$GPGLL,3002.79214,N,03121.07972,E,211215.00,A,A*EEEEEEEEEEEEEEEEEEEEEEEEEEEEEEEEEEEEEEEEEEEEEEEEEEEEEEEEEEEEEEEEEEEEEEEEEEEEEEEEEEEEEEEEEEEEEEEEEEEEEEEEEEEEEEEEEEEEEEEEEEEEEEEEEEEEEEEEEEEEEEEEEEEEEEEEEEEEEEEEEEEEEEEEEEEEEEEEEEEEEEEEEEEEEEEEEEEEEEEEEEEEEEEEEEEEEEEEEEEEEEEEEEEEEEEEEEEEEEEEEEEEEEEEEEEEEEEEEEEEEEEEEEEEEEEEEEEEEEEEEEEEEEEEEEEEEEEEEEEEEEEEEEEEEEEEEEEEEEEEEEEEEEEEEEEEEEEEEEEEEEEEEEEEEEEEEEEEEEEEEEEEEEEEEEEEEEEEE$GPRMC,211217.00,A,3002.79130,N,03121.07971,E,1.667,180.03,110621,,,A*65
$GPVTG,180.03,T,,M,1.667,N,3.088,K,A*32
$GPGGA,211217.00,3002.79130,N,03121.07971,E,1,07,1.19,142.7,M,15.3,M,,*57
$GPGSA,A,3,07,09,04,03,06,16,22,,,,,,2.51,1.19,2.21*04
$GPGSV,3,1,11,01,02,171,13,02,13,312,16,03,40,127,37,04,45,045,19*71
$GPGSV,3,2,11,06,36,283,30,07,65,228,31,09,58,346,27,16,22,066,14*7D
$GPGSV,3,3,11,22,16,135,32,26,07,042,,30,24,224,16*4B
$GPGLL,3002.79130,N,03121.07971,E,211217.00,A,A*EEEEEEEEEEEEEEEEEEEEEEEEEEEEEEEEEEEEEEEEEEEEEEEEEEEEEEEEEEEEEEEEEEEEEEEEEEEEEEEEEEEEEEEEEEEEEEEEEEEEEEEEEEEEEEEEEEEEEEEEEEEEEEEEEEEEEEEEEEEEEEEEEEEEEEEEEEEEEEEEEEEEEEEEEEEEEEEEEEEEEEEEEEEEEEEEEEEEEEEEEEEEEEEEEEEEEEEEEEEEEEEEEEEEEEEEEEEEEEEEEEEEEEEEEEEEEEEEEEEEEEEEEEEEEEEEEEEEEEEEEEEEEEEEEEEEEEEEEEEEEEEEEEEEEEEEEEEEEEEEEEEEEEEEEEEEEEEEEEEEEEEEEEEEEEEEEEEEEEEEEEEEEEEEEEE$GPRMC,211219.00,A,3002.79016,N,03121.07998,E,1.561,176.04,110621,,,A*62
$GPVTG,176.04,T,,M,1.561,N,2.891,K,A*38
$GPGGA,211219.00,3002.79016,N,03121.07998,E,1,07,1.19,143.3,M,15.3,M,,*5E
$GPGSA,A,3,07,09,04,03,06,16,22,,,,,,2.51,1.19,2.21*04
$GPGSV,3,1,11,01,02,171,14,02,13,312,14,03,40,127,28,04,45,045,25*75
$GPGSV,3,2,11,06,36,283,30,07,65,228,31,09,58,346,30,16,22,066,15*7A
$GPGSV,3,3,11,22,16,135,33,26,07,042,,30,24,224,17*4B
$GPGLL,3002.79016,N,03121.07998,E,211219.00,A,A*EEEEEEEEEEEEEEEEEEEEEEEEEEEEEEEEEEEEEEEEEEEEEEEEEEEEEEEEEEEEEEEEEEEEEEEEEEEEEEEEEEEEEEEEEEEEEEEEEEEEEEEEEEEEEEEEEEEEEEEEEEEEEEEEEEEEEEEEEEEEEEEEEEEEEEEEEEEEEEEEEEEEEEEEEEEEEEEEEEEEEEEEEEEEEEEEEEEEEEEEEEEEEEEEEEEEEEEEEEEEEEEEEEEEEEEEEEEEEEEEEEEEEEEEEEEEEEEEEEEEEEEEEEEEEEEEEEEEEEEEEEEEEEEEEEEEEEEEEEEEEEEEEEEEEEEEEEEEEEEEEEEEEEEEEEEEEEEEEEEEEEEEEEEEEEEEEEEEEEEEEEEEEEEEEEEEEEEEEEE$GPRMC,211221.00,A,3002.78939,N,03121.08020,E,1.273,,110621,,,A*77
$GPVTG,,T,,M,1.273,N,2.358,K,A*28
$GPGGA,211221.00,3002.78939,N,03121.08020,E,1,07,1.19,142.7,M,15.3,M,,*50
$GPGSA,A,3,07,09,04,03,06,16,22,,,,,,2.51,1.19,2.21*04
$GPGSV,3,1,11,01,02,171,11,02,13,312,12,03,40,127,35,04,45,045,29*76
$GPGSV,3,2,11,06,36,283,27,07,65,228,31,09,58,346,26,16,22,066,11*7F
$GPGSV,3,3,11,22,16,135,30,26,07,042,,30,24,224,15*4A
$GPGLL,3002.78939,N,03121.08020,E,211221.00,A,A*EEEEEEEEEEEEEEEEEEEEEEEEEEEEEEEEEEEEEEEEEEEEEEEEEEEEEEEEEEEEEEEEEEEEEEEEEEEEEEEEEEEEEEEEEEEEEEEEEEEEEEEEEEEEEEEEEEEEEEEEEEEEEEEEEEEEEEEEEEEEEEEEEEEEEEEEEEEEEEEEEEEEEEEEEEEEEEEEEEEEEEEEEEEEEEEEEEEEEEEEEEEEEEEEEEEEEEEEEEEEEEEEEEEEEEEEEEEEEEEEEEEEEEEEEEEEEEEEEEEEEEEEEEEEEEEEEEEEEEEEEEEEEEEEEEEEEEEEEEEEEEEEEEEEEEEEEEEEEEEEEEEEEEEEEEEEEEEEEEEEEEEEEEEEEEEEEEEEEEEEEEEEEEEEEEEEEEEEEEEEEEEEEEEE$GPRMC,211223.00,A,3002.78883,N,03121.08004,E,1.629,,110621,,,A*78
$GPVTG,,T,,M,1.629,N,3.018,K,A*25
$GPGGA,211223.00,3002.78883,N,03121.08004,E,1,07,1.19,141.1,M,15.3,M,,*51
$GPGSA,A,3,07,09,04,03,06,16,22,,,,,,2.51,1.19,2.21*04
$GPGSV,3,1,11,01,02,171,11,02,13,312,14,03,40,127,36,04,45,045,19*70
$GPGSV,3,2,11,06,36,283,33,07,65,228,31,09,58,346,25,16,22,066,11*79
$GPGSV,3,3,11,22,16,135,34,26,07,042,,30,24,224,19*42
$GPGLL,3002.78883,N,03121.08004,E,211223.00,A,A*EEEEEEEEEEEEEEEEEEEEEEEEEEEEEEEEEEEEEEEEEEEEEEEEEEEEEEEEEEEEEEEEEEEEEEEEEEEEEEEEEEEEEEEEEEEEEEEEEEEEEEEEEEEEEEEEEEEEEEEEEEEEEEEEEEEEEEEEEEEEEEEEEEEEEEEEEEEEEEEEEEEEEEEEEEEEEEEEEEEEEEEEEEEEEEEEEEEEEEEEEEEEEEEEEEEEEEEEEEEEEEEEEEEEEEEEEEEEEEEEEEEEEEEEEEEEEEEEEEEEEEEEEEEEEEEEEEEEEEEEEEEEEEEEEEEEEEEEEEEEEEEEEEEEEEEEEEEEEEEEEEEEEEEEEEEEEEEEEEEEEEEEEEEEEEEEEEEEEEEEEEEEEEEEEEEEEEEEEEEEEEE$GPRMC,211225.00,A,3002.78795,N,03121.07993,E,1.282,,110621,,,A*7B
$GPVTG,,T,,M,1.282,N,2.375,K,A*29
$GPGGA,211225.00,3002.78795,N,03121.07993,E,1,07,1.19,139.9,M,15.3,M,,*50
$GPGSA,A,3,07,09,04,03,06,16,22,,,,,,2.51,1.19,2.21*04
$GPGSV,3,1,11,01,02,171,09,02,13,312,14,03,40,127,27,04,45,045,28*7B
$GPGSV,3,2,11,06,36,283,18,07,65,228,30,09,58,346,31,16,22,066,11*74
$GPGSV,3,3,11,22,16,135,23,26,07,042,,30,24,224,19*44
$GPGLL,3002.78795,N,03121.07993,E,211225.00,A,A*EEEEEEEEEEEEEEEEEEEEEEEEEEEEEEEEEEEEEEEEEEEEEEEEEEEEEEEEEEEEEEEEEEEEEEEEEEEEEEEEEEEEEEEEEEEEEEEEEEEEEEEEEEEEEEEEEEEEEEEEEEEEEEEEEEEEEEEEEEEEEEEEEEEEEEEEEEEEEEEEEEEEEEEEEEEEEEEEEEEEEEEEEEEEEEEEEEEEEEEEEEEEEEEEEEEEEEEEEEEEEEEEEEEEEEEEEEEEEEEEEEEEEEEEEEEEEEEEEEEEEEEEEEEEEEEEEEEEEEEEEEEEEEEEEEEEEEEEEEEEEEEEEEEEEEEEEEEEEEEEEEEEEEEEEEEEEEEEEEEEEEEEEEEEEEEEEEEEEEEEEEEEEEEEEEEEEEEEEEEEEEEEEEE$GPRMC,211227.00,A,3002.78710,N,03121.07996,E,1.443,172.03,110621,,,A*63
$GPVTG,172.03,T,,M,1.443,N,2.673,K,A*38
$GPGGA,211227.00,3002.78710,N,03121.07996,E,1,06,1.36,139.3,M,15.3,M,,*5C
$GPGSA,A,3,07,09,04,03,06,22,,,,,,,2.85,1.36,2.50*01
$GPGSV,3,1,11,01,02,171,09,02,14,312,15,03,40,127,25,04,45,045,32*74
$GPGSV,3,2,11,06,36,283,22,07,65,228,29,09,58,346,33,16,22,066,09*7E
$GPGSV,3,3,11,22,16,135,26,26,07,042,,30,24,224,19*41
$GPGLL,3002.78710,N,03121.07996,E,211227.00,A,A*EEEEEEEEEEEEEEEEEEEEEEEEEEEEEEEEEEEEEEEEEEEEEEEEEEEEEEEEEEEEEEEEEEEEEEEEEEEEEEEEEEEEEEEEEEEEEEEEEEEEEEEEEEEEEEEEEEEEEEEEEEEEEEEEEEEEEEEEEEEEEEEEEEEEEEEEEEEEEEEEEEEEEEEEEEEEEEEEEEEEEEEEEEEEEEEEEEEEEEEEEEEEEEEEEEEEEEEEEEEEEEEEEEEEEEEEEEEEEEEEEEEEEEEEEEEEEEEEEEEEEEEEEEEEEEEEEEEEEEEEEEEEEEEEEEEEEEEEEEEEEEEEEEEEEEEEEEEEEEEEEEEEEEEEEEEEEEEEEEEEEEEEEEEEEEEEEEEEEEEEEEEEEEEEEEEEEEEEEE$GPRMC,211229.00,A,3002.78627,N,03121.07998,E,1.346,170.01,110621,,,A*64
$GPVTG,170.01,T,,M,1.346,N,2.492,K,A*37
$GPGGA,211229.00,3002.78627,N,03121.07998,E,1,06,1.36,139.1,M,15.3,M,,*5B
$GPGSA,A,3,07,09,04,03,06,22,,,,,,,2.85,1.36,2.50*01
$GPGSV,3,1,11,01,02,171,09,02,14,312,13,03,40,127,37,04,44,046,33*72
$GPGSV,3,2,11,06,36,283,33,07,65,228,33,09,58,346,29,16,22,066,08*7F
$GPGSV,3,3,11,22,16,135,25,26,07,042,,30,24,224,21*49
$GPGLL,3002.78627,N,03121.07998,E,211229.00,A,A*EEEEEEEEEEEEEEEEEEEEEEEEEEEEEEEEEEEEEEEEEEEEEEEEEEEEEEEEEEEEEEEEEEEEEEEEEEEEEEEEEEEEEEEEEEEEEEEEEEEEEEEEEEEEEEEEEEEEEEEEEEEEEEEEEEEEEEEEEEEEEEEEEEEEEEEEEEEEEEEEEEEEEEEEEEEEEEEEEEEEEEEEEEEEEEEEEEEEEEEEEEEEEEEEEEEEEEEEEEEEEEEEEEEEEEEEEEEEEEEEEEEEEEEEEEEEEEEEEEEEEEEEEEEEEEEEEEEEEEEEEEEEEEEEEEEEEEEEEEEEEEEEEEEEEEEEEEEEEEEEEEEEEEEEEEEEEEEEEEEEEEEEEEEEEEEEEEEEEEEEEEEEEEEEEEEEEEEEE$GPRMC,211231.00,A,3002.78553,N,03121.08032,E,1.672,165.51,110621,,,A*68
$GPVTG,165.51,T,,M,1.672,N,3.096,K,A*35
$GPGGA,211231.00,3002.78553,N,03121.08032,E,1,06,1.36,139.2,M,15.3,M,,*57
$GPGSA,A,3,07,09,04,03,06,22,,,,,,,2.85,1.36,2.50*01
$GPGSV,3,1,11,01,02,171,09,02,14,312,15,03,40,127,32,04,44,046,31*73
$GPGSV,3,2,11,06,36,283,28,07,65,228,32,09,58,346,34,16,22,066,07*77
$GPGSV,3,3,11,22,16,135,23,26,07,042,,30,24,224,32*4D
$GPGLL,3002.78553,N,03121.08032,E,211231.00,A,A*EEEEEEEEEEEEEEEEEEEEEEEEEEEEEEEEEEEEEEEEEEEEEEEEEEEEEEEEEEEEEEEEEEEEEEEEEEEEEEEEEEEEEEEEEEEEEEEEEEEEEEEEEEEEEEEEEEEEEEEEEEEEEEEEEEEEEEEEEEEEEEEEEEEEEEEEEEEEEEEEEEEEEEEEEEEEEEEEEEEEEEEEEEEEEEEEEEEEEEEEEEEEEEEEEEEEEEEEEEEEEEEEEEEEEEEEEEEEEEEEEEEEEEEEEEEEEEEEEEEEEEEEEEEEEEEEEEEEEEEEEEEEEEEEEEEEEEEEEEEEEEEEEEEEEEEEEEEEEEEEEEEEEEEEEEEEEEEEEEEEEEEEEEEEEEEEEEEEEEEEEEEEEEEEEEEEEEEEEE$GPRMC,211233.00,A,3002.78464,N,03121.08018,E,1.622,198.43,110621,,,A*63
$GPVTG,198.43,T,,M,1.622,N,3.003,K,A*3D
$GPGGA,211233.00,3002.78464,N,03121.08018,E,1,06,1.36,139.4,M,15.3,M,,*5E
$GPGSA,A,3,07,09,04,03,06,22,,,,,,,2.85,1.36,2.50*01
$GPGSV,3,1,11,01,02,171,07,02,14,312,14,03,40,127,30,04,44,046,24*7A
$GPGSV,3,2,11,06,36,283,35,07,65,228,31,09,58,347,29,16,22,066,*72
$GPGSV,3,3,11,22,16,135,26,26,07,042,,30,24,224,28*43
$GPGLL,3002.78464,N,03121.08018,E,211233.00,A,A*EEEEEEEEEEEEEEEEEEEEEEEEEEEEEEEEEEEEEEEEEEEEEEEEEEEEEEEEEEEEEEEEEEEEEEEEEEEEEEEEEEEEEEEEEEEEEEEEEEEEEEEEEEEEEEEEEEEEEEEEEEEEEEEEEEEEEEEEEEEEEEEEEEEEEEEEEEEEEEEEEEEEEEEEEEEEEEEEEEEEEEEEEEEEEEEEEEEEEEEEEEEEEEEEEEEEEEEEEEEEEEEEEEEEEEEEEEEEEEEEEEEEEEEEEEEEEEEEEEEEEEEEEEEEEEEEEEEEEEEEEEEEEEEEEEEEEEEEEEEEEEEEEEEEEEEEEEEEEEEEEEEEEEEEEEEEEEEEEEEEEEEEEEEEEEEEEEEEEEEEEEEEEEEEEEEEEEEEEEEE$GPRMC,211235.00,A,3002.78394,N,03121.08006,E,1.797,189.80,110621,,,A*62
$GPVTG,189.80,T,,M,1.797,N,3.329,K,A*36
$GPGGA,211235.00,3002.78394,N,03121.08006,E,1,06,1.36,138.6,M,15.3,M,,*5C
$GPGSA,A,3,07,09,04,03,06,22,,,,,,,2.85,1.36,2.50*01
$GPGSV,3,1,11,01,02,171,07,02,14,312,13,03,40,127,19,04,44,046,24*76
$GPGSV,3,2,11,06,36,283,27,07,65,228,31,09,58,347,33,16,22,066,*7A
$GPGSV,3,3,11,22,16,135,24,26,07,042,,30,24,224,28*41
$GPGLL,3002.78394,N,03121.08006,E,211235.00,A,A*EEEEEEEEEEEEEEEEEEEEEEEEEEEEEEEEEEEEEEEEEEEEEEEEEEEEEEEEEEEEEEEEEEEEEEEEEEEEEEEEEEEEEEEEEEEEEEEEEEEEEEEEEEEEEEEEEEEEEEEEEEEEEEEEEEEEEEEEEEEEEEEEEEEEEEEEEEEEEEEEEEEEEEEEEEEEEEEEEEEEEEEEEEEEEEEEEEEEEEEEEEEEEEEEEEEEEEEEEEEEEEEEEEEEEEEEEEEEEEEEEEEEEEEEEEEEEEEEEEEEEEEEEEEEEEEEEEEEEEEEEEEEEEEEEEEEEEEEEEEEEEEEEEEEEEEEEEEEEEEEEEEEEEEEEEEEEEEEEEEEEEEEEEEEEEEEEEEEEEEEEEEEEEEEEEEEEEEEEE$GPRMC,211237.00,A,3002.78295,N,03121.07996,E,1.850,187.70,110621,,,A*6A
$GPVTG,187.70,T,,M,1.850,N,3.427,K,A*3A
$GPGGA,211237.00,3002.78295,N,03121.07996,E,1,06,1.36,138.7,M,15.3,M,,*50
$GPGSA,A,3,07,09,04,03,06,22,,,,,,,2.84,1.36,2.50*00
$GPGSV,3,1,11,01,02,171,07,02,14,312,13,03,40,127,35,04,44,046,25*79
$GPGSV,3,2,11,06,36,283,23,07,65,228,31,09,58,347,26,16,22,066,*7A
$GPGSV,3,3,11,22,16,135,30,26,07,042,,30,24,224,30*4D
$GPGLL,3002.78295,N,03121.07996,E,211237.00,A,A*EEEEEEEEEEEEEEEEEEEEEEEEEEEEEEEEEEEEEEEEEEEEEEEEEEEEEEEEEEEEEEEEEEEEEEEEEEEEEEEEEEEEEEEEEEEEEEEEEEEEEEEEEEEEEEEEEEEEEEEEEEEEEEEEEEEEEEEEEEEEEEEEEEEEEEEEEEEEEEEEEEEEEEEEEEEEEEEEEEEEEEEEEEEEEEEEEEEEEEEEEEEEEEEEEEEEEEEEEEEEEEEEEEEEEEEEEEEEEEEEEEEEEEEEEEEEEEEEEEEEEEEEEEEEEEEEEEEEEEEEEEEEEEEEEEEEEEEEEEEEEEEEEEEEEEEEEEEEEEEEEEEEEEEEEEEEEEEEEEEEEEEEEEEEEEEEEEEEEEEEEEEEEEEEEEEEEEEEEEE$GPRMC,211239.00,A,3002.78203,N,03121.08001,E,1.673,,110621,,,A*7B
$GPVTG,,T,,M,1.673,N,3.098,K,A*22
$GPGGA,211239.00,3002.78203,N,03121.08001,E,1,06,1.36,139.1,M,15.3,M,,*5E
$GPGSA,A,3,07,09,04,03,06,22,,,,,,,2.84,1.36,2.50*00
$GPGSV,3,1,11,01,02,171,16,02,14,312,13,03,40,127,31,04,44,046,23*7B
$GPGSV,3,2,11,06,36,283,21,07,65,228,26,09,58,347,27,16,22,065,*7C
$GPGSV,3,3,11,22,16,135,31,26,07,042,,30,24,224,30*4C
$GPGLL,3002.78203,N,03121.08001,E,211239.00,A,A*EEEEEEEEEEEEEEEEEEEEEEEEEEEEEEEEEEEEEEEEEEEEEEEEEEEEEEEEEEEEEEEEEEEEEEEEEEEEEEEEEEEEEEEEEEEEEEEEEEEEEEEEEEEEEEEEEEEEEEEEEEEEEEEEEEEEEEEEEEEEEEEEEEEEEEEEEEEEEEEEEEEEEEEEEEEEEEEEEEEEEEEEEEEEEEEEEEEEEEEEEEEEEEEEEEEEEEEEEEEEEEEEEEEEEEEEEEEEEEEEEEEEEEEEEEEEEEEEEEEEEEEEEEEEEEEEEEEEEEEEEEEEEEEEEEEEEEEEEEEEEEEEEEEEEEEEEEEEEEEEEEEEEEEEEEEEEEEEEEEEEEEEEEEEEEEEEEEEEEEEEEEEEEEEEEEEEEEEEEEEEEEEEEEEEEE$GPRMC,211241.00,A,3002.78107,N,03121.07996,E,1.702,,110621,,,A*7C
$GPVTG,,T,,M,1.702,N,3.153,K,A*23
$GPGGA,211241.00,3002.78107,N,03121.07996,E,1,06,1.36,138.6,M,15.3,M,,*58
$GPGSA,A,3,07,09,04,03,06,22,,,,,,,2.84,1.36,2.50*00
$GPGSV,3,1,11,01,02,171,16,02,14,312,11,03,40,127,36,04,44,046,23*7E
$GPGSV,3,2,11,06,36,283,20,07,65,228,31,09,58,347,27,16,22,065,*7B
$GPGSV,3,3,11,22,16,135,32,26,07,042,,30,24,224,27*49
$GPGLL,3002.78107,N,03121.07996,E,211241.00,A,A*EEEEEEEEEEEEEEEEEEEEEEEEEEEEEEEEEEEEEEEEEEEEEEEEEEEEEEEEEEEEEEEEEEEEEEEEEEEEEEEEEEEEEEEEEEEEEEEEEEEEEEEEEEEEEEEEEEEEEEEEEEEEEEEEEEEEEEEEEEEEEEEEEEEEEEEEEEEEEEEEEEEEEEEEEEEEEEEEEEEEEEEEEEEEEEEEEEEEEEEEEEEEEEEEEEEEEEEEEEEEEEEEEEEEEEEEEEEEEEEEEEEEEEEEEEEEEEEEEEEEEEEEEEEEEEEEEEEEEEEEEEEEEEEEEEEEEEEEEEEEEEEEEEEEEEEEEEEEEEEEEEEEEEEEEEEEEEEEEEEEEEEEEEEEEEEEEEEEEEEEEEEEEEEEEEEEEEEEEEEEEEEEEEEEEEEEEEEEE$GPRMC,211243.00,A,3002.78065,N,03121.08008,E,1.235,,110621,,,A*7B
$GPVTG,,T,,M,1.235,N,2.288,K,A*26
$GPGGA,211243.00,3002.78065,N,03121.08008,E,1,06,1.36,138.6,M,15.3,M,,*5E
$GPGSA,A,3,07,09,04,03,06,22,,,,,,,2.84,1.36,2.50*00
$GPGSV,3,1,11,01,02,171,16,02,14,312,12,03,40,127,32,04,44,046,24*7E
$GPGSV,3,2,11,06,36,283,22,07,65,228,30,09,58,347,32,16,22,065,*7C
$GPGSV,3,3,11,22,16,135,29,26,07,042,,30,24,224,25*41
$GPGLL,3002.78065,N,03121.08008,E,211243.00,A,A*EEEEEEEEEEEEEEEEEEEEEEEEEEEEEEEEEEEEEEEEEEEEEEEEEEEEEEEEEEEEEEEEEEEEEEEEEEEEEEEEEEEEEEEEEEEEEEEEEEEEEEEEEEEEEEEEEEEEEEEEEEEEEEEEEEEEEEEEEEEEEEEEEEEEEEEEEEEEEEEEEEEEEEEEEEEEEEEEEEEEEEEEEEEEEEEEEEEEEEEEEEEEEEEEEEEEEEEEEEEEEEEEEEEEEEEEEEEEEEEEEEEEEEEEEEEEEEEEEEEEEEEEEEEEEEEEEEEEEEEEEEEEEEEEEEEEEEEEEEEEEEEEEEEEEEEEEEEEEEEEEEEEEEEEEEEEEEEEEEEEEEEEEEEEEEEEEEEEEEEEEEEEEEEEEEEEEEEEEEEEEEEEEEEEE$GPRMC,211245.00,A,3002.77970,N,03121.08013,E,1.397,,110621,,,A*7C
$GPVTG,,T,,M,1.397,N,2.588,K,A*28
$GPGGA,211245.00,3002.77970,N,03121.08013,E,1,06,1.36,138.8,M,15.3,M,,*5E
$GPGSA,A,3,07,09,04,03,06,22,,,,,,,2.84,1.36,2.50*00
$GPGSV,3,1,11,01,02,171,07,02,14,312,11,03,40,127,36,04,44,046,25*78
$GPGSV,3,2,11,06,36,283,22,07,65,228,31,09,58,347,27,16,22,065,*79
$GPGSV,3,3,11,22,16,135,30,26,07,042,,30,24,224,35*48
$GPGLL,3002.77970,N,03121.08013,E,211245.00,A,A*EEEEEEEEEEEEEEEEEEEEEEEEEEEEEEEEEEEEEEEEEEEEEEEEEEEEEEEEEEEEEEEEEEEEEEEEEEEEEEEEEEEEEEEEEEEEEEEEEEEEEEEEEEEEEEEEEEEEEEEEEEEEEEEEEEEEEEEEEEEEEEEEEEEEEEEEEEEEEEEEEEEEEEEEEEEEEEEEEEEEEEEEEEEEEEEEEEEEEEEEEEEEEEEEEEEEEEEEEEEEEEEEEEEEEEEEEEEEEEEEEEEEEEEEEEEEEEEEEEEEEEEEEEEEEEEEEEEEEEEEEEEEEEEEEEEEEEEEEEEEEEEEEEEEEEEEEEEEEEEEEEEEEEEEEEEEEEEEEEEEEEEEEEEEEEEEEEEEEEEEEEEEEEEEEEEEEEEEEEEEEEEEEEEEEEEE$GPRMC,211247.00,A,3002.77888,N,03121.08033,E,1.620,179.23,110621,,,A*63
$GPVTG,179.23,T,,M,1.620,N,3.000,K,A*35
$GPGGA,211247.00,3002.77888,N,03121.08033,E,1,06,1.36,139.1,M,15.3,M,,*50
$GPGSA,A,3,07,09,04,03,06,22,,,,,,,2.84,1.36,2.50*00
$GPGSV,3,1,11,01,02,171,07,02,14,312,10,03,40,127,34,04,44,046,26*78
$GPGSV,3,2,11,06,36,283,23,07,65,228,32,09,58,347,26,16,22,065,*7A
$GPGSV,3,3,11,22,16,135,28,26,07,042,,30,24,224,34*40
$GPGLL,3002.77888,N,03121.08033,E,211247.00,A,A*EEEEEEEEEEEEEEEEEEEEEEEEEEEEEEEEEEEEEEEEEEEEEEEEEEEEEEEEEEEEEEEEEEEEEEEEEEEEEEEEEEEEEEEEEEEEEEEEEEEEEEEEEEEEEEEEEEEEEEEEEEEEEEEEEEEEEEEEEEEEEEEEEEEEEEEEEEEEEEEEEEEEEEEEEEEEEEEEEEEEEEEEEEEEEEEEEEEEEEEEEEEEEEEEEEEEEEEEEEEEEEEEEEEEEEEEEEEEEEEEEEEEEEEEEEEEEEEEEEEEEEEEEEEEEEEEEEEEEEEEEEEEEEEEEEEEEEEEEEEEEEEEEEEEEEEEEEEEEEEEEEEEEEEEEEEEEEEEEEEEEEEEEEEEEEEEEEEEEEEEEEEEEEEEEEEEEEEEEE$GPRMC,211249.00,A,3002.77794,N,03121.08014,E,1.667,189.21,110621,,,A*64
$GPVTG,189.21,T,,M,1.667,N,3.087,K,A*34
$GPGGA,211249.00,3002.77794,N,03121.08014,E,1,06,1.36,138.9,M,15.3,M,,*50
$GPGSA,A,3,07,09,04,03,06,22,,,,,,,2.84,1.36,2.50*00
$GPGSV,3,1,11,01,02,171,07,02,14,312,10,03,40,127,32,04,44,046,26*7E
$GPGSV,3,2,11,06,36,283,21,07,65,228,31,09,58,347,27,16,22,065,*7A
$GPGSV,3,3,11,22,16,135,26,26,07,042,,30,24,224,32*48
$GPGLL,3002.77794,N,03121.08014,E,211249.00,A,A*EEEEEEEEEEEEEEEEEEEEEEEEEEEEEEEEEEEEEEEEEEEEEEEEEEEEEEEEEEEEEEEEEEEEEEEEEEEEEEEEEEEEEEEEEEEEEEEEEEEEEEEEEEEEEEEEEEEEEEEEEEEEEEEEEEEEEEEEEEEEEEEEEEEEEEEEEEEEEEEEEEEEEEEEEEEEEEEEEEEEEEEEEEEEEEEEEEEEEEEEEEEEEEEEEEEEEEEEEEEEEEEEEEEEEEEEEEEEEEEEEEEEEEEEEEEEEEEEEEEEEEEEEEEEEEEEEEEEEEEEEEEEEEEEEEEEEEEEEEEEEEEEEEEEEEEEEEEEEEEEEEEEEEEEEEEEEEEEEEEEEEEEEEEEEEEEEEEEEEEEEEEEEEEEEEEEEEEEEEEEEEE$GPRMC,211251.00,A,3002.77728,N,03121.08013,E,0.938,,110621,,,A*74
$GPVTG,,T,,M,0.938,N,1.737,K,A*23
$GPGGA,211251.00,3002.77728,N,03121.08013,E,1,06,1.36,138.6,M,15.3,M,,*56
$GPGSA,A,3,07,09,04,03,06,22,,,,,,,2.84,1.36,2.50*00
$GPGSV,3,1,12,01,02,171,07,02,14,312,09,03,40,127,31,04,44,046,24*74
$GPGSV,3,2,12,06,36,283,17,07,65,228,32,09,58,347,24,16,22,065,*7C
$GPGSV,3,3,12,22,16,135,30,26,07,042,,30,24,224,25,39,54,193,30*79
$GPGLL,3002.77728,N,03121.08013,E,211251.00,A,A*EEEEEEEEEEEEEEEEEEEEEEEEEEEEEEEEEEEEEEEEEEEEEEEEEEEEEEEEEEEEEEEEEEEEEEEEEEEEEEEEEEEEEEEEEEEEEEEEEEEEEEEEEEEEEEEEEEEEEEEEEEEEEEEEEEEEEEEEEEEEEEEEEEEEEEEEEEEEEEEEEEEEEEEEEEEEEEEEEEEEEEEEEEEEEEEEEEEEEEEEEEEEEEEEEEEEEEEEEEEEEEEEEEEEEEEEEEEEEEEEEEEEEEEEEEEEEEEEEEEEEEEEEEEEEEEEEEEEEEEEEEEEEEEEEEEEEEEEEEEEEEEEEEEEEEEEEEEEEEEEEEEEEEEEEEEEEEEEEEEEEEEEEEEEEEEEEEEEEEEEEEEEEEEEEEEEEEE$GPRMC,211253.00,A,3002.77668,N,03121.08023,E,0.887,,110621,,,A*75
$GPVTG,,T,,M,0.887,N,1.643,K,A*24
$GPGGA,211253.00,3002.77668,N,03121.08023,E,1,06,1.36,138.8,M,15.3,M,,*5C
$GPGSA,A,3,07,09,04,03,06,22,,,,,,,2.84,1.36,2.49*08
$GPGSV,3,1,12,01,02,171,07,02,14,312,,03,40,127,35,04,44,046,30*7C
$GPGSV,3,2,12,06,36,283,19,07,65,228,31,09,58,347,25,16,22,065,*70
$GPGSV,3,3,12,22,16,135,32,26,07,042,,30,25,224,30,39,54,193,31*7F
$GPGLL,3002.77668,N,03121.08023,E,211253.00,A,A*EEEEEEEEEEEEEEEEEEEEEEEEEEEEEEEEEEEEEEEEEEEEEEEEEEEEEEEEEEEEEEEEEEEEEEEEEEEEEEEEEEEEEEEEEEEEEEEEEEEEEEEEEEEEEEEEEEEEEEEEEEEEEEEEEEEEEEEEEEEEEEEEEEEEEEEEEEEEEEEEEEEEEEEEEEEEEEEEEEEEEEEEEEEEEEEEEEEEEEEEEEEEEEEEEEEEEEEEEEEEEEEEEEEEEEEEEEEEEEEEEEEEEEEEEEEEEEEEEEEEEEEEEEEEEEEEEEEEEEEEEEEEEEEEEEEEEEEEEEEEEEEEEEEEEEEEEEEEEEEEEEEEEEEEEEEEEEEEEEEEEEEEEEEEEEEEEEEEEEEEEEEEEEEEEEEEEEEEEEEE$GPRMC,211255.00,A,3002.77555,N,03121.08016,E,1.556,206.31,110621,,,A*60
$GPVTG,206.31,T,,M,1.556,N,2.882,K,A*3C
$GPGGA,211255.00,3002.77555,N,03121.08016,E,1,06,1.36,139.5,M,15.3,M,,*5D
$GPGSA,A,3,07,09,04,03,06,22,,,,,,,2.84,1.36,2.49*08
$GPGSV,3,1,12,01,02,171,,02,14,312,,03,40,127,33,04,44,046,28*74
$GPGSV,3,2,12,06,36,283,18,07,65,228,30,09,58,347,26,16,22,065,*73
$GPGSV,3,3,12,22,16,135,33,26,07,042,,30,25,224,32,39,54,193,30*7D
$GPGLL,3002.77555,N,03121.08016,E,211255.00,A,A*EEEEEEEEEEEEEEEEEEEEEEEEEEEEEEEEEEEEEEEEEEEEEEEEEEEEEEEEEEEEEEEEEEEEEEEEEEEEEEEEEEEEEEEEEEEEEEEEEEEEEEEEEEEEEEEEEEEEEEEEEEEEEEEEEEEEEEEEEEEEEEEEEEEEEEEEEEEEEEEEEEEEEEEEEEEEEEEEEEEEEEEEEEEEEEEEEEEEEEEEEEEEEEEEEEEEEEEEEEEEEEEEEEEEEEEEEEEEEEEEEEEEEEEEEEEEEEEEEEEEEEEEEEEEEEEEEEEEEEEEEEEEEEEEEEEEEEEEEEEEEEEEEEEEEEEEEEEEEEEEEEEEEEEEEEEEEEEEEEEEEEEEEEEEEEEEEEEEEEEEEEEEEEEEEEE$GPRMC,211257.00,A,3002.77475,N,03121.07968,E,1.636,208.07,110621,,,A*60
$GPVTG,208.07,T,,M,1.636,N,3.031,K,A*33
$GPGGA,211257.00,3002.77475,N,03121.07968,E,1,06,1.36,139.6,M,15.3,M,,*50
$GPGSA,A,3,07,09,04,03,06,22,,,,,,,2.84,1.36,2.49*08
$GPGSV,3,1,12,01,02,171,13,02,14,312,,03,40,127,33,04,44,046,25*7B
$GPGSV,3,2,12,06,36,283,15,07,65,228,28,09,58,347,27,16,22,065,*76
$GPGSV,3,3,12,22,16,135,35,26,07,042,,30,25,224,35,39,54,193,30*7C
$GPGLL,3002.77475,N,03121.07968,E,211257.00,A,A*EEEEEEEEEEEEEEEEEEEEEEEEEEEEEEEEEEEEEEEEEEEEEEEEEEEEEEEEEEEEEEEEEEEEEEEEEEEEEEEEEEEEEEEEEEEEEEEEEEEEEEEEEEEEEEEEEEEEEEEEEEEEEEEEEEEEEEEEEEEEEEEEEEEEEEEEEEEEEEEEEEEEEEEEEEEEEEEEEEEEEEEEEEEEEEEEEEEEEEEEEEEEEEEEEEEEEEEEEEEEEEEEEEEEEEEEEEEEEEEEEEEEEEEEEEEEEEEEEEEEEEEEEEEEEEEEEEEEEEEEEEEEEEEEEEEEEEEEEEEEEEEEEEEEEEEEEEEEEEEEEEEEEEEEEEEEEEEEEEEEEEEEEEEEEEEEEEEEEEEEEEEEEEE$GPRMC,211259.00,A,3002.77399,N,03121.07922,E,1.076,,110621,,,A*74
$GPVTG,,T,,M,1.076,N,1.993,K,A*21
$GPGGA,211259.00,3002.77399,N,03121.07922,E,1,06,1.36,139.1,M,15.3,M,,*52
$GPGSA,A,3,07,09,04,03,06,22,,,,,,,2.84,1.36,2.49*08
$GPGSV,3,1,11,01,02,171,10,02,14,312,,03,40,127,28,04,44,046,24*70
$GPGSV,3,2,11,06,36,283,18,07,65,228,32,09,58,347,25,16,22,065,*71
$GPGSV,3,3,11,22,16,135,30,26,07,042,,30,25,224,32*4E
$GPGLL,3002.77399,N,03121.07922,E,211259.00,A,A*EEEEEEEEEEEEEEEEEEEEEEEEEEEEEEEEEEEEEEEEEEEEEEEEEEEEEEEEEEEEEEEEEEEEEEEEEEEEEEEEEEEEEEEEEEEEEEEEEEEEEEEEEEEEEEEEEEEEEEEEEEEEEEEEEEEEEEEEEEEEEEEEEEEEEEEEEEEEEEEEEEEEEEEEEEEEEEEEEEEEEEEEEEEEEEEEEEEEEEEEEEEEEEEEEEEEEEEEEEEEEEEEEEEEEEEEEEEEEEEEEEEEEEEEEEEEEEEEEEEEEEEEEEEEEEEEEEEEEEEEEEEEEEEEEEEEEEEEEEEEEEEEEEEEEEEEEEEEEEEEEEEEEEEEEEEEEEEEEEEEEEEEEEEEEEEEEEEEEEEEEEEEEEEEEEEEEEEEEEEEEEEEEEEEEEEEEEEE$GPRMC,211301.00,A,3002.77308,N,03121.07866,E,1.546,213.95,110621,,,A*65
$GPVTG,213.95,T,,M,1.546,N,2.864,K,A*3F
$GPGGA,211301.00,3002.77308,N,03121.07866,E,1,06,1.36,139.3,M,15.3,M,,*55
$GPGSA,A,3,07,09,04,03,06,22,,,,,,,2.84,1.36,2.49*08
$GPGSV,3,1,11,01,02,171,09,02,14,312,,03,40,127,31,04,44,046,27*73
$GPGSV,3,2,11,06,36,283,25,07,65,228,31,09,58,347,31,16,22,065,*79
$GPGSV,3,3,11,22,16,135,29,26,07,042,,30,25,224,30*44
$GPGLL,3002.77308,N,03121.07866,E,211301.00,A,A*EEEEEEEEEEEEEEEEEEEEEEEEEEEEEEEEEEEEEEEEEEEEEEEEEEEEEEEEEEEEEEEEEEEEEEEEEEEEEEEEEEEEEEEEEEEEEEEEEEEEEEEEEEEEEEEEEEEEEEEEEEEEEEEEEEEEEEEEEEEEEEEEEEEEEEEEEEEEEEEEEEEEEEEEEEEEEEEEEEEEEEEEEEEEEEEEEEEEEEEEEEEEEEEEEEEEEEEEEEEEEEEEEEEEEEEEEEEEEEEEEEEEEEEEEEEEEEEEEEEEEEEEEEEEEEEEEEEEEEEEEEEEEEEEEEEEEEEEEEEEEEEEEEEEEEEEEEEEEEEEEEEEEEEEEEEEEEEEEEEEEEEEEEEEEEEEEEEEEEEEEEEEEEEEEEEEEEEEEEEEE$GPRMC,211303.00,A,3002.77264,N,03121.07805,E,1.193,230.70,110621,,,A*6F
$GPVTG,230.70,T,,M,1.193,N,2.209,K,A*38
$GPGGA,211303.00,3002.77264,N,03121.07805,E,1,06,1.36,139.5,M,15.3,M,,*5F
$GPGSA,A,3,07,09,04,03,06,22,,,,,,,2.84,1.36,2.49*08
$GPGSV,3,1,11,01,02,171,08,02,14,312,,03,40,127,27,04,44,046,21*73
$GPGSV,3,2,11,06,36,283,33,07,65,228,30,09,58,347,34,16,22,065,*7A
$GPGSV,3,3,11,22,16,135,25,26,07,042,,30,25,224,32*4A
$GPGLL,3002.77264,N,03121.07805,E,211303.00,A,A*EEEEEEEEEEEEEEEEEEEEEEEEEEEEEEEEEEEEEEEEEEEEEEEEEEEEEEEEEEEEEEEEEEEEEEEEEEEEEEEEEEEEEEEEEEEEEEEEEEEEEEEEEEEEEEEEEEEEEEEEEEEEEEEEEEEEEEEEEEEEEEEEEEEEEEEEEEEEEEEEEEEEEEEEEEEEEEEEEEEEEEEEEEEEEEEEEEEEEEEEEEEEEEEEEEEEEEEEEEEEEEEEEEEEEEEEEEEEEEEEEEEEEEEEEEEEEEEEEEEEEEEEEEEEEEEEEEEEEEEEEEEEEEEEEEEEEEEEEEEEEEEEEEEEEEEEEEEEEEEEEEEEEEEEEEEEEEEEEEEEEEEEEEEEEEEEEEEEEEEEEEEEEEEEEEEEEEEEEEEEEE$GPRMC,211305.00,A,3002.77223,N,03121.07715,E,1.296,,110621,,,A*7A
$GPVTG,,T,,M,1.296,N,2.400,K,A*29
$GPGGA,211305.00,3002.77223,N,03121.07715,E,1,06,1.36,138.2,M,15.3,M,,*52
$GPGSA,A,3,07,09,04,03,06,22,,,,,,,2.84,1.36,2.49*08
$GPGSV,3,1,11,01,02,171,,02,14,312,,03,40,127,32,04,44,046,20*7E
$GPGSV,3,2,11,06,36,283,34,07,65,228,34,09,58,347,31,16,22,065,*7C
$GPGSV,3,3,11,22,16,135,24,26,07,042,,30,25,224,25*4D
$GPGLL,3002.77223,N,03121.07715,E,211305.00,A,A*EEEEEEEEEEEEEEEEEEEEEEEEEEEEEEEEEEEEEEEEEEEEEEEEEEEEEEEEEEEEEEEEEEEEEEEEEEEEEEEEEEEEEEEEEEEEEEEEEEEEEEEEEEEEEEEEEEEEEEEEEEEEEEEEEEEEEEEEEEEEEEEEEEEEEEEEEEEEEEEEEEEEEEEEEEEEEEEEEEEEEEEEEEEEEEEEEEEEEEEEEEEEEEEEEEEEEEEEEEEEEEEEEEEEEEEEEEEEEEEEEEEEEEEEEEEEEEEEEEEEEEEEEEEEEEEEEEEEEEEEEEEEEEEEEEEEEEEEEEEEEEEEEEEEEEEEEEEEEEEEEEEEEEEEEEEEEEEEEEEEEEEEEEEEEEEEEEEEEEEEEEEEEEEEEEEEEEEEEEEEEEEEEEEEEEEEE$GPRMC,211307.00,A,3002.77176,N,03121.07604,E,1.574,,110621,,,A*71
$GPVTG,,T,,M,1.574,N,2.915,K,A*2B
$GPGGA,211307.00,3002.77176,N,03121.07604,E,1,06,1.36,137.4,M,15.3,M,,*5B
$GPGSA,A,3,07,09,04,03,06,22,,,,,,,2.84,1.36,2.49*08
$GPGSV,3,1,11,01,02,171,,02,14,312,08,03,40,127,23,04,44,046,24*72
$GPGSV,3,2,11,06,36,283,29,07,65,228,34,09,58,347,33,16,22,065,*72
$GPGSV,3,3,11,22,16,135,23,26,07,042,,30,25,224,33*4D
$GPGLL,3002.77176,N,03121.07604,E,211307.00,A,A*EEEEEEEEEEEEEEEEEEEEEEEEEEEEEEEEEEEEEEEEEEEEEEEEEEEEEEEEEEEEEEEEEEEEEEEEEEEEEEEEEEEEEEEEEEEEEEEEEEEEEEEEEEEEEEEEEEEEEEEEEEEEEEEEEEEEEEEEEEEEEEEEEEEEEEEEEEEEEEEEEEEEEEEEEEEEEEEEEEEEEEEEEEEEEEEEEEEEEEEEEEEEEEEEEEEEEEEEEEEEEEEEEEEEEEEEEEEEEEEEEEEEEEEEEEEEEEEEEEEEEEEEEEEEEEEEEEEEEEEEEEEEEEEEEEEEEEEEEEEEEEEEEEEEEEEEEEEEEEEEEEEEEEEEEEEEEEEEEEEEEEEEEEEEEEEEEEEEEEEEEEEEEEEEEEEEEEEEEEEEEEEEEEEEEEEEEEE$GPRMC,211309.00,A,3002.77139,N,03121.07459,E,1.639,248.33,110621,,,A*64
$GPVTG,248.33,T,,M,1.639,N,3.035,K,A*3B
$GPGGA,211309.00,3002.77139,N,03121.07459,E,1,06,1.36,136.3,M,15.3,M,,*52
$GPGSA,A,3,07,09,04,03,06,22,,,,,,,2.84,1.36,2.49*08
$GPGSV,3,1,11,01,02,171,,02,14,312,,03,40,127,18,04,44,046,32*75
$GPGSV,3,2,11,06,36,283,34,07,65,228,32,09,58,347,32,16,22,065,*79
$GPGSV,3,3,11,22,16,135,21,26,07,042,,30,25,224,32*4E
$GPGLL,3002.77139,N,03121.07459,E,211309.00,A,A*EEEEEEEEEEEEEEEEEEEEEEEEEEEEEEEEEEEEEEEEEEEEEEEEEEEEEEEEEEEEEEEEEEEEEEEEEEEEEEEEEEEEEEEEEEEEEEEEEEEEEEEEEEEEEEEEEEEEEEEEEEEEEEEEEEEEEEEEEEEEEEEEEEEEEEEEEEEEEEEEEEEEEEEEEEEEEEEEEEEEEEEEEEEEEEEEEEEEEEEEEEEEEEEEEEEEEEEEEEEEEEEEEEEEEEEEEEEEEEEEEEEEEEEEEEEEEEEEEEEEEEEEEEEEEEEEEEEEEEEEEEEEEEEEEEEEEEEEEEEEEEEEEEEEEEEEEEEEEEEEEEEEEEEEEEEEEEEEEEEEEEEEEEEEEEEEEEEEEEEEEEEEEEEEEEEEEEEEEEEEEEE$GPRMC,211311.00,A,3002.77122,N,03121.07343,E,1.542,,110621,,,A*74
$GPVTG,,T,,M,1.542,N,2.856,K,A*28
$GPGGA,211311.00,3002.77122,N,03121.07343,E,1,06,1.36,135.3,M,15.3,M,,*5E
$GPGSA,A,3,07,09,04,03,06,22,,,,,,,2.84,1.36,2.49*08
$GPGSV,3,1,11,01,02,171,,02,14,312,,03,40,127,21,04,44,046,33*7E
$GPGSV,3,2,11,06,36,283,31,07,65,228,33,09,58,347,32,16,22,065,*7D
$GPGSV,3,3,11,22,16,135,20,26,07,042,,30,25,224,35*48
$GPGLL,3002.77122,N,03121.07343,E,211311.00,A,A*EEEEEEEEEEEEEEEEEEEEEEEEEEEEEEEEEEEEEEEEEEEEEEEEEEEEEEEEEEEEEEEEEEEEEEEEEEEEEEEEEEEEEEEEEEEEEEEEEEEEEEEEEEEEEEEEEEEEEEEEEEEEEEEEEEEEEEEEEEEEEEEEEEEEEEEEEEEEEEEEEEEEEEEEEEEEEEEEEEEEEEEEEEEEEEEEEEEEEEEEEEEEEEEEEEEEEEEEEEEEEEEEEEEEEEEEEEEEEEEEEEEEEEEEEEEEEEEEEEEEEEEEEEEEEEEEEEEEEEEEEEEEEEEEEEEEEEEEEEEEEEEEEEEEEEEEEEEEEEEEEEEEEEEEEEEEEEEEEEEEEEEEEEEEEEEEEEEEEEEEEEEEEEEEEEEEEEEEEEEEEEEEEEEEEEEEEE$GPRMC,211313.00,A,3002.77094,N,03121.07239,E,1.237,,110621,,,A*73
$GPVTG,,T,,M,1.237,N,2.291,K,A*2C
$GPGGA,211313.00,3002.77094,N,03121.07239,E,1,06,1.36,134.3,M,15.3,M,,*5D
$GPGSA,A,3,07,09,04,03,06,22,,,,,,,2.84,1.36,2.49*08
$GPGSV,3,1,11,01,02,171,,02,14,312,,03,40,127,20,04,44,046,28*75
$GPGSV,3,2,11,06,36,282,23,07,65,228,35,09,58,347,28,16,22,065,*72
$GPGSV,3,3,11,22,16,135,19,26,07,042,,30,25,224,28*4E
$GPGLL,3002.77094,N,03121.07239,E,211313.00,A,A*EEEEEEEEEEEEEEEEEEEEEEEEEEEEEEEEEEEEEEEEEEEEEEEEEEEEEEEEEEEEEEEEEEEEEEEEEEEEEEEEEEEEEEEEEEEEEEEEEEEEEEEEEEEEEEEEEEEEEEEEEEEEEEEEEEEEEEEEEEEEEEEEEEEEEEEEEEEEEEEEEEEEEEEEEEEEEEEEEEEEEEEEEEEEEEEEEEEEEEEEEEEEEEEEEEEEEEEEEEEEEEEEEEEEEEEEEEEEEEEEEEEEEEEEEEEEEEEEEEEEEEEEEEEEEEEEEEEEEEEEEEEEEEEEEEEEEEEEEEEEEEEEEEEEEEEEEEEEEEEEEEEEEEEEEEEEEEEEEEEEEEEEEEEEEEEEEEEEEEEEEEEEEEEEEEEEEEEEEEEEEEEEEEEEEEEEEEEE$GPRMC,211315.00,A,3002.77051,N,03121.07143,E,1.517,,110621,,,A*77
$GPVTG,,T,,M,1.517,N,2.809,K,A*22
$GPGGA,211315.00,3002.77051,N,03121.07143,E,1,06,1.36,133.0,M,15.3,M,,*58
$GPGSA,A,3,07,09,04,03,06,22,,,,,,,2.84,1.36,2.49*08
$GPGSV,3,1,11,01,02,171,,02,14,312,,03,40,127,18,04,44,046,27*71
$GPGSV,3,2,11,06,36,282,25,07,66,229,31,09,58,347,24,16,22,065,*7E
$GPGSV,3,3,11,22,16,135,19,26,07,042,,30,25,224,31*46
$GPG222222222222r±ÿ11rº








                       ªrb
                          ±©Ùå5)ÿ





























































































































































































































































































































































































































































































































































                                 ©ÝÍ5)AYQ±±Q±±5±Å¹ÙåÕ±9±Í¹ÅÑÁ±-±©É5)A±ÉÅÅÍÅ?ÁÁ±ÍÁÁÉ\nn042,N,03121.07082,E,1,06,1.36,132.7,M,15.3,M,,*53
$GPGSA,A,3,07,09,04,03,06,22,,,,,,,2.84,1.36,2.49*08
$GPGSV,3,1,11,01,02,171,,02,14,312,,03,40,127,18,04,44,046,25*73
$GPGSV,3,2,11,06,36,282,24,07,66,229,32,09,58,347,29,16,22,065,*71
$GPGSV,3,3,11,22,16,135,19,26,07,042,,30,25,224,30*47
$GPGLL,3002.77042,N,03121.07082,E,211316.00,A,A*EEEEEEEEEEEEEEEEEEEEEEEEEEEEEEEEEEEEEEEEEEEEEEEEEEEEEEEEEEEEEEEEEEEEEEEEEEEEEEEEEEEEEEEEEEEEEEEEEEEEEEEEEEEEEEEEEEEEEEEEEEEEEEEEEEEEEEEEEEEEEEEEEEEEEEEEEEEEEEEEEEEEEEEEEEEEEEEEEEEEEEEEEEEEEEEEEEEEEEEEEEEEEEEEEEEEEEEEEEEEEEEEEEEEEEEEEEEEEEEEEEEEEEEEEEEEEEEEEEEEEEEEEEEEEEEEEEEEEEEEEEEEEEEEEEEEEEEEEEEEEEEEEEEEEEEEEEEEEEEEEEEEEEEEEEEEEEEEEEEEEEEEEEEEEEEEEEEEEEEEEEEEEEEEEEEEEEEEEEEEEEEEEEEEEEEEEEEE$GPRMC,211318.00,A,3002.77055,N,03121.07026,E,0.818,,110621,,,A*7F
$GPVTG,,T,,M,0.818,N,1.515,K,A*22
$GPGGA,211318.00,3002.77055,N,03121.07026,E,1,06,1.36,131.1,M,15.3,M,,*50
$GPGSA,A,3,07,09,04,03,06,22,,,,,,,2.84,1.36,2.49*08
$GPGSV,3,1,11,01,02,171,,02,14,312,,03,40,127,19,04,44,046,22*75
$GPGSV,3,2,11,06,36,282,20,07,66,229,34,09,58,347,31,16,22,065,*7A
$GPGSV,3,3,11,22,16,135,16,26,07,042,,30,25,224,26*4F
$GPGLL,3002.77055,N,03121.07026,E,211318.00,A,A*EEEEEEEEEEEEEEEEEEEEEEEEEEEEEEEEEEEEEEEEEEEEEEEEEEEEEEEEEEEEEEEEEEEEEEEEEEEEEEEEEEEEEEEEEEEEEEEEEEEEEEEEEEEEEEEEEEEEEEEEEEEEEEEEEEEEEEEEEEEEEEEEEEEEEEEEEEEEEEEEEEEEEEEEEEEEEEEEEEEEEEEEEEEEEEEEEEEEEEEEEEEEEEEEEEEEEEEEEEEEEEEEEEEEEEEEEEEEEEEEEEEEEEEEEEEEEEEEEEEEEEEEEEEEEEEEEEEEEEEEEEEEEEEEEEEEEEEEEEEEEEEEEEEEEEEEEEEEEEEEEEEEEEEEEEEEEEEEEEEEEEEEEEEEEEEEEEEEEEEEEEEEEEEEEEEEEEEEEEEEEEEEEEEEEEEEEEEEE$GPRMC,211320.00,A,3002.77038,N,03121.06926,E,1.791,,110621,,,A*78
$GPVTG,,T,,M,1.791,N,3.316,K,A*2A
$GPGGA,211320.00,3002.77038,N,03121.06926,E,1,06,1.36,130.4,M,15.3,M,,*5C
$GPGSA,A,3,07,09,04,03,06,22,,,,,,,2.84,1.36,2.49*08
$GPGSV,3,1,11,01,02,171,,02,14,312,,03,40,127,19,04,44,046,29*7E
$GPGSV,3,2,11,06,36,282,22,07,66,229,32,09,58,347,29,16,22,065,*77
$GPGSV,3,3,11,22,16,135,17,26,07,042,,30,25,224,28*40
$GPGLL,3002.77038,N,03121.06926,E,211320.00,A,A*EEEEEEEEEEEEEEEEEEEEEEEEEEEEEEEEEEEEEEEEEEEEEEEEEEEEEEEEEEEEEEEEEEEEEEEEEEEEEEEEEEEEEEEEEEEEEEEEEEEEEEEEEEEEEEEEEEEEEEEEEEEEEEEEEEEEEEEEEEEEEEEEEEEEEEEEEEEEEEEEEEEEEEEEEEEEEEEEEEEEEEEEEEEEEEEEEEEEEEEEEEEEEEEEEEEEEEEEEEEEEEEEEEEEEEEEEEEEEEEEEEEEEEEEEEEEEEEEEEEEEEEEEEEEEEEEEEEEEEEEEEEEEEEEEEEEEEEEEEEEEEEEEEEEEEEEEEEEEEEEEEEEEEEEEEEEEEEEEEEEEEEEEEEEEEEEEEEEEEEEEEEEEEEEEEEEEEEEEEEEEEEEEEEEEEEEE$GPRMC,211322.00,A,3002.77017,N,03121.06824,E,1.958,,110621,,,A*7F
$GPVTG,,T,,M,1.958,N,3.627,K,A*26
$GPGGA,211322.00,3002.77017,N,03121.06824,E,1,06,1.36,130.3,M,15.3,M,,*57
$GPGSA,A,3,07,09,04,03,06,22,,,,,,,2.84,1.36,2.49*08
$GPGSV,3,1,11,01,02,171,,02,14,312,,03,40,127,17,04,44,046,20*79
$GPGSV,3,2,11,06,36,282,21,07,66,229,33,09,58,347,27,16,22,065,*7B
$GPGSV,3,3,11,22,16,135,18,26,07,042,,30,25,224,29*4E
$GPGLL,3002.77017,N,03121.06824,E,211322.00,A,A*EEEEEEEEEEEEEEEEEEEEEEEEEEEEEEEEEEEEEEEEEEEEEEEEEEEEEEEEEEEEEEEEEEEEEEEEEEEEEEEEEEEEEEEEEEEEEEEEEEEEEEEEEEEEEEEEEEEEEEEEEEEEEEEEEEEEEEEEEEEEEEEEEEEEEEEEEEEEEEEEEEEEEEEEEEEEEEEEEEEEEEEEEEEEEEEEEEEEEEEEEEEEEEEEEEEEEEEEEEEEEEEEEEEEEEEEEEEEEEEEEEEEEEEEEEEEEEEEEEEEEEEEEEEEEEEEEEEEEEEEEEEEEEEEEEEEEEEEEEEEEEEEEEEEEEEEEEEEEEEEEEEEEEEEEEEEEEEEEEEEEEEEEEEEEEEEEEEEEEEEEEEEEEEEEEEEEEEEEEEEEEEEEEEEEEEEEEEE$GPRMC,211324.00,A,3002.76968,N,03121.06751,E,1.254,,110621,,,A*73
$GPVTG,,T,,M,1.254,N,2.322,K,A*20
$GPGGA,211324.00,3002.76968,N,03121.06751,E,1,06,1.36,130.3,M,15.3,M,,*5C
$GPGSA,A,3,07,09,04,03,06,22,,,,,,,2.84,1.36,2.49*08
$GPGSV,3,1,11,01,02,171,,02,14,312,,03,40,127,17,04,44,046,28*71
$GPGSV,3,2,11,06,36,282,22,07,66,229,32,09,58,347,25,16,22,065,*7B
$GPGSV,3,3,11,22,16,135,20,26,07,042,,30,25,224,31*4C
$GPGLL,3002.76968,N,03121.06751,E,211324.00,A,A*EEEEEEEEEEEEEEEEEEEEEEEEEEEEEEEEEEEEEEEEEEEEEEEEEEEEEEEEEEEEEEEEEEEEEEEEEEEEEEEEEEEEEEEEEEEEEEEEEEEEEEEEEEEEEEEEEEEEEEEEEEEEEEEEEEEEEEEEEEEEEEEEEEEEEEEEEEEEEEEEEEEEEEEEEEEEEEEEEEEEEEEEEEEEEEEEEEEEEEEEEEEEEEEEEEEEEEEEEEEEEEEEEEEEEEEEEEEEEEEEEEEEEEEEEEEEEEEEEEEEEEEEEEEEEEEEEEEEEEEEEEEEEEEEEEEEEEEEEEEEEEEEEEEEEEEEEEEEEEEEEEEEEEEEEEEEEEEEEEEEEEEEEEEEEEEEEEEEEEEEEEEEEEEEEEEEEEEEEEEEEEEEEEEEEEEEEEE$GPRMC,211326.00,A,3002.76953,N,03121.06585,E,2.186,,110621,,,A*7D
$GPVTG,,T,,M,2.186,N,4.049,K,A*27
$GPGGA,211326.00,3002.76953,N,03121.06585,E,1,06,1.36,128.9,M,15.3,M,,*5E
$GPGSA,A,3,07,09,04,03,06,22,,,,,,,2.84,1.36,2.49*08
$GPGSV,3,1,11,01,02,171,,02,14,312,,03,40,127,18,04,44,046,26*70
$GPGSV,3,2,11,06,36,282,24,07,66,229,30,09,58,347,25,16,22,065,*7F
$GPGSV,3,3,11,22,16,135,18,26,07,042,,30,25,224,28*4F
$GPGLL,3002.76953,N,03121.06585,E,211326.00,A,A*EEEEEEEEEEEEEEEEEEEEEEEEEEEEEEEEEEEEEEEEEEEEEEEEEEEEEEEEEEEEEEEEEEEEEEEEEEEEEEEEEEEEEEEEEEEEEEEEEEEEEEEEEEEEEEEEEEEEEEEEEEEEEEEEEEEEEEEEEEEEEEEEEEEEEEEEEEEEEEEEEEEEEEEEEEEEEEEEEEEEEEEEEEEEEEEEEEEEEEEEEEEEEEEEEEEEEEEEEEEEEEEEEEEEEEEEEEEEEEEEEEEEEEEEEEEEEEEEEEEEEEEEEEEEEEEEEEEEEEEEEEEEEEEEEEEEEEEEEEEEEEEEEEEEEEEEEEEEEEEEEEEEEEEEEEEEEEEEEEEEEEEEEEEEEEEEEEEEEEEEEEEEEEEEEEEEEEEEEEEEEEEEEEEEEEEE$GPRMC,211328.00,A,3002.76926,N,03121.06458,E,1.491,,110621,,,A*70
$GPVTG,,T,,M,1.491,N,2.761,K,A*2C
$GPGGA,211328.00,3002.76926,N,03121.06458,E,1,06,1.36,129.3,M,15.3,M,,*58
$GPGSA,A,3,07,09,04,03,06,22,,,,,,,2.84,1.36,2.49*08
$GPGSV,3,1,11,01,02,171,,02,14,312,,03,40,127,17,04,44,046,23*7A
$GPGSV,3,2,11,06,36,282,19,07,66,229,31,09,58,347,25,16,22,065,*70
$GPGSV,3,3,11,22,16,135,18,26,07,042,,30,25,224,29*4E
$GPGLL,3002.76926,N,03121.06458,E,211328.00,A,A*EEEEEEEEEEEEEEEEEEEEEEEEEEEEEEEEEEEEEEEEEEEEEEEEEEEEEEEEEEEEEEEEEEEEEEEEEEEEEEEEEEEEEEEEEEEEEEEEEEEEEEEEEEEEEEEEEEEEEEEEEEEEEEEEEEEEEEEEEEEEEEEEEEEEEEEEEEEEEEEEEEEEEEEEEEEEEEEEEEEEEEEEEEEEEEEEEEEEEEEEEEEEEEEEEEEEEEEEEEEEEEEEEEEEEEEEEEEEEEEEEEEEEEEEEEEEEEEEEEEEEEEEEEEEEEEEEEEEEEEEEEEEEEEEEEEEEEEEEEEEEEEEEEEEEEEEEEEEEEEEEEEEEEEEEEEEEEEEEEEEEEEEEEEEEEEEEEEEEEEEEEEEEEEEEEEEEEEEEEEEEEEEEEEEEEEEEEEEEE$GPRMC,211330.00,A,3002.76913,N,03121.06334,E,1.671,,110621,,,A*7E
$GPVTG,,T,,M,1.671,N,3.094,K,A*2C
$GPGGA,211330.00,3002.76913,N,03121.06334,E,1,06,1.36,128.2,M,15.3,M,,*5A
$GPGSA,A,3,07,09,04,03,06,22,,,,,,,2.83,1.36,2.49*0F
$GPGSV,3,1,11,01,02,171,,02,14,312,,03,40,127,19,04,44,046,24*73
$GPGSV,3,2,11,06,36,282,19,07,66,229,30,09,58,347,27,16,22,065,*73
$GPGSV,3,3,11,22,16,135,19,26,07,042,,30,25,224,23*45
$GPGLL,3002.76913,N,03121.06334,E,211330.00,A,A*EEEEEEEEEEEEEEEEEEEEEEEEEEEEEEEEEEEEEEEEEEEEEEEEEEEEEEEEEEEEEEEEEEEEEEEEEEEEEEEEEEEEEEEEEEEEEEEEEEEEEEEEEEEEEEEEEEEEEEEEEEEEEEEEEEEEEEEEEEEEEEEEEEEEEEEEEEEEEEEEEEEEEEEEEEEEEEEEEEEEEEEEEEEEEEEEEEEEEEEEEEEEEEEEEEEEEEEEEEEEEEEEEEEEEEEEEEEEEEEEEEEEEEEEEEEEEEEEEEEEEEEEEEEEEEEEEEEEEEEEEEEEEEEEEEEEEEEEEEEEEEEEEEEEEEEEEEEEEEEEEEEEEEEEEEEEEEEEEEEEEEEEEEEEEEEEEEEEEEEEEEEEEEEEEEEEEEEEEEEEEEEEEEEEEEEEEEEEE$GPRMC,211332.00,A,3002.76896,N,03121.06204,E,1.381,,110621,,,A*78
$GPVTG,,T,,M,1.381,N,2.558,K,A*22
$GPGGA,211332.00,3002.76896,N,03121.06204,E,1,06,1.36,126.5,M,15.3,M,,*5F
$GPGSA,A,3,07,09,04,03,06,22,,,,,,,2.83,1.36,2.49*0F
$GPGSV,3,1,11,01,02,171,05,02,14,312,,03,40,127,16,04,44,046,19*77
$GPGSV,3,2,11,06,36,282,15,07,66,229,28,09,58,347,24,16,22,065,*75
$GPGSV,3,3,11,22,16,135,17,26,07,042,,30,25,224,18*43
$GPGLL,3002.76896,N,03121.06204,E,211332.00,A,A*EEEEEEEEEEEEEEEEEEEEEEEEEEEEEEEEEEEEEEEEEEEEEEEEEEEEEEEEEEEEEEEEEEEEEEEEEEEEEEEEEEEEEEEEEEEEEEEEEEEEEEEEEEEEEEEEEEEEEEEEEEEEEEEEEEEEEEEEEEEEEEEEEEEEEEEEEEEEEEEEEEEEEEEEEEEEEEEEEEEEEEEEEEEEEEEEEEEEEEEEEEEEEEEEEEEEEEEEEEEEEEEEEEEEEEEEEEEEEEEEEEEEEEEEEEEEEEEEEEEEEEEEEEEEEEEEEEEEEEEEEEEEEEEEEEEEEEEEEEEEEEEEEEEEEEEEEEEEEEEEEEEEEEEEEEEEEEEEEEEEEEEEEEEEEEEEEEEEEEEEEEEEEEEEEEEEEEEEEEEEEEEEEEEEEEEEE$GPRMC,211334.00,A,3002.76859,N,03121.06094,E,2.317,,110621,,,A*7A
$GPVTG,,T,,M,2.317,N,4.292,K,A*29
$GPGGA,211334.00,3002.76859,N,03121.06094,E,1,06,1.36,125.6,M,15.3,M,,*51
$GPGSA,A,3,07,09,04,03,06,22,,,,,,,2.83,1.36,2.48*0E
$GPGSV,3,1,11,01,02,171,07,02,14,312,,03,40,127,17,04,44,046,16*7B
$GPGSV,3,2,11,06,36,282,19,07,66,229,28,09,58,347,22,16,22,065,*7F
$GPGSV,3,3,11,22,16,135,16,26,07,042,,30,25,224,23*4A
$GPGLL,3002.76859,N,03121.06094,E,211334.00,A,A*EEEEEEEEEEEEEEEEEEEEEEEEEEEEEEEEEEEEEEEEEEEEEEEEEEEEEEEEEEEEEEEEEEEEEEEEEEEEEEEEEEEEEEEEEEEEEEEEEEEEEEEEEEEEEEEEEEEEEEEEEEEEEEEEEEEEEEEEEEEEEEEEEEEEEEEEEEEEEEEEEEEEEEEEEEEEEEEEEEEEEEEEEEEEEEEEEEEEEEEEEEEEEEEEEEEEEEEEEEEEEEEEEEEEEEEEEEEEEEEEEEEEEEEEEEEEEEEEEEEEEEEEEEEEEEEEEEEEEEEEEEEEEEEEEEEEEEEEEEEEEEEEEEEEEEEEEEEEEEEEEEEEEEEEEEEEEEEEEEEEEEEEEEEEEEEEEEEEEEEEEEEEEEEEEEEEEEEEEEEEEEEEEEEEEEEEE$GPRMC,211336.00,A,3002.76812,N,03121.05870,E,3.072,,110621,,,A*77
$GPVTG,,T,,M,3.072,N,5.689,K,A*27
$GPGGA,211336.00,3002.76812,N,03121.05870,E,1,06,1.36,124.5,M,15.3,M,,*5F
$GPGSA,A,3,07,09,04,03,06,22,,,,,,,2.83,1.36,2.48*0E
$GPGSV,3,1,11,01,02,171,07,02,14,312,,03,40,127,17,04,44,046,14*79
$GPGSV,3,2,11,06,36,282,20,07,66,229,33,09,58,347,19,16,22,065,*77
$GPGSV,3,3,11,22,16,135,17,26,07,042,,30,25,224,31*48
$GPGLL,3002.76812,N,03121.05870,E,211336.00,A,A*EEEEEEEEEEEEEEEEEEEEEEEEEEEEEEEEEEEEEEEEEEEEEEEEEEEEEEEEEEEEEEEEEEEEEEEEEEEEEEEEEEEEEEEEEEEEEEEEEEEEEEEEEEEEEEEEEEEEEEEEEEEEEEEEEEEEEEEEEEEEEEEEEEEEEEEEEEEEEEEEEEEEEEEEEEEEEEEEEEEEEEEEEEEEEEEEEEEEEEEEEEEEEEEEEEEEEEEEEEEEEEEEEEEEEEEEEEEEEEEEEEEEEEEEEEEEEEEEEEEEEEEEEEEEEEEEEEEEEEEEEEEEEEEEEEEEEEEEEEEEEEEEEEEEEEEEEEEEEEEEEEEEEEEEEEEEEEEEEEEEEEEEEEEEEEEEEEEEEEEEEEEEEEEEEEEEEEEEEEEEEEEEEEEEEEEEEE$GPRMC,211338.00,A,3002.76888,N,03121.05822,E,2.349,,110621,,,A*77
$GPVTG,,T,,M,2.349,N,4.350,K,A*2D
$GPGGA,211338.00,3002.76888,N,03121.05822,E,1,06,1.36,127.5,M,15.3,M,,*56
$GPGSA,A,3,07,09,04,03,06,22,,,,,,,2.83,1.36,2.48*0E
$GPGSV,3,1,11,01,02,171,11,02,14,312,,03,40,127,23,04,44,046,13*7E
$GPGSV,3,2,11,06,36,282,26,07,66,229,31,09,58,347,18,16,22,065,*72
$GPGSV,3,3,11,22,16,135,18,26,07,042,,30,25,224,33*45
$GPGLL,3002.76888,N,03121.05822,E,211338.00,A,A*EEEEEEEEEEEEEEEEEEEEEEEEEEEEEEEEEEEEEEEEEEEEEEEEEEEEEEEEEEEEEEEEEEEEEEEEEEEEEEEEEEEEEEEEEEEEEEEEEEEEEEEEEEEEEEEEEEEEEEEEEEEEEEEEEEEEEEEEEEEEEEEEEEEEEEEEEEEEEEEEEEEEEEEEEEEEEEEEEEEEEEEEEEEEEEEEEEEEEEEEEEEEEEEEEEEEEEEEEEEEEEEEEEEEEEEEEEEEEEEEEEEEEEEEEEEEEEEEEEEEEEEEEEEEEEEEEEEEEEEEEEEEEEEEEEEEEEEEEEEEEEEEEEEEEEEEEEEEEEEEEEEEEEEEEEEEEEEEEEEEEEEEEEEEEEEEEEEEEEEEEEEEEEEEEEEEEEEEEEEEEEEEEEEEEEEEE$GPRMC,211340.00,A,3002.76889,N,03121.05743,E,0.718,,110621,,,A*73
$GPVTG,,T,,M,0.718,N,1.330,K,A*2C
$GPGGA,211340.00,3002.76889,N,03121.05743,E,1,06,1.36,126.9,M,15.3,M,,*5D
$GPGSA,A,3,07,09,04,03,06,22,,,,,,,2.83,1.36,2.48*0E
$GPGSV,3,1,11,01,02,171,11,02,14,312,,03,40,127,19,04,44,046,13*77
$GPGSV,3,2,11,06,36,282,24,07,66,229,30,09,58,347,24,16,22,065,*7E
$GPGSV,3,3,11,22,16,135,18,26,07,042,,30,25,224,28*4F
$GPGLL,3002.76889,N,03121.05743,E,211340.00,A,A*EEEEEEEEEEEEEEEEEEEEEEEEEEEEEEEEEEEEEEEEEEEEEEEEEEEEEEEEEEEEEEEEEEEEEEEEEEEEEEEEEEEEEEEEEEEEEEEEEEEEEEEEEEEEEEEEEEEEEEEEEEEEEEEEEEEEEEEEEEEEEEEEEEEEEEEEEEEEEEEEEEEEEEEEEEEEEEEEEEEEEEEEEEEEEEEEEEEEEEEEEEEEEEEEEEEEEEEEEEEEEEEEEEEEEEEEEEEEEEEEEEEEEEEEEEEEEEEEEEEEEEEEEEEEEEEEEEEEEEEEEEEEEEEEEEEEEEEEEEEEEEEEEEEEEEEEEEEEEEEEEEEEEEEEEEEEEEEEEEEEEEEEEEEEEEEEEEEEEEEEEEEEEEEEEEEEEEEEEEEEEEEEEEEEEEEEEE$GPRMC,211342.00,A,3002.76886,N,03121.05703,E,1.611,,110621,,,A*73
$GPVTG,,T,,M,1.611,N,2.983,K,A*24
$GPGGA,211342.00,3002.76886,N,03121.05703,E,1,06,1.36,126.9,M,15.3,M,,*54
$GPGSA,A,3,07,09,04,03,06,22,,,,,,,2.83,1.36,2.48*0E
$GPGSV,3,1,11,01,02,171,11,02,14,312,,03,40,127,14,04,44,046,13*7A
$GPGSV,3,2,11,06,36,282,24,07,66,229,30,09,58,347,24,16,22,065,*7E
$GPGSV,3,3,11,22,16,135,15,26,07,042,,30,25,224,25*4F
$GPGLL,3002.76886,N,03121.05703,E,211342.00,A,A*EEEEEEEEEEEEEEEEEEEEEEEEEEEEEEEEEEEEEEEEEEEEEEEEEEEEEEEEEEEEEEEEEEEEEEEEEEEEEEEEEEEEEEEEEEEEEEEEEEEEEEEEEEEEEEEEEEEEEEEEEEEEEEEEEEEEEEEEEEEEEEEEEEEEEEEEEEEEEEEEEEEEEEEEEEEEEEEEEEEEEEEEEEEEEEEEEEEEEEEEEEEEEEEEEEEEEEEEEEEEEEEEEEEEEEEEEEEEEEEEEEEEEEEEEEEEEEEEEEEEEEEEEEEEEEEEEEEEEEEEEEEEEEEEEEEEEEEEEEEEEEEEEEEEEEEEEEEEEEEEEEEEEEEEEEEEEEEEEEEEEEEEEEEEEEEEEEEEEEEEEEEEEEEEEEEEEEEEEEEEEEEEEEEEEEEEEEEEEEEEEEEEEE$GPRMC,211344.00,A,3002.76820,N,03121.05558,E,0.945,,110621,,,A*7A
$GPVTG,,T,,M,0.945,N,1.750,K,A*28
$GPGGA,211344.00,3002.76820,N,03121.05558,E,1,06,1.36,126.3,M,15.3,M,,*58
$GPGSA,A,3,07,09,04,03,06,22,,,,,,,2.83,1.36,2.48*0E
$GPGSV,3,1,11,01,02,171,10,02,14,312,,03,40,127,11,04,44,046,10*7D
$GPGSV,3,2,11,06,36,282,25,07,66,229,31,09,58,347,33,16,22,065,*78
$GPGSV,3,3,11,22,16,135,14,26,07,042,,30,25,224,31*4B
